"Tipo","Preco","Area","Quartos","Banheiros","Endereco","Estado","Cidade","lat","long"
"AP",1300,61,1,1,"Rua da República - Cidade Baixa, Porto Alegre - RS, Brazil","RS","Porto Alegre",-30.0382669,-51.2230373
"AP",1500,42,2,1,"Rua Cônego Ladeira, 57 - Vila Mazzei, São Paulo - SP, Brazil","SP","São Paulo",-23.4779824,-46.6033724
"AP",700,35,1,2,"Centro Histórico, Porto Alegre - RS, Brazil","RS","Porto Alegre",-30.0325029,-51.2303294
"AP",1450,56,2,2,"Rua Marquês de Valença - Móoca, São Paulo - SP, Brazil","SP","São Paulo",-23.5597067,-46.5899411
"AP",950,45,2,1,"Gleba Palhano, Londrina - PR, Brazil","PR","Londrina",NA,NA
"AP",1150,45,1,1,"Jardim São Dimas, São José dos Campos - SP, Brazil","SP","São José dos Campos",-23.1987571,-45.8887572
"AP",600,73,1,2,"Rua Doutor Quirino, 533 - Centro, Campinas - SP, Brazil","SP","Campinas",-22.902741,-47.0592056
"AP",1500,49,2,1,"Jardim Flor da Montanha, Guarulhos - SP, Brazil","SP","Guarulhos",-23.4484137,-46.5446320642067
"AP",1400,70,2,1,"Rua César Lombroso - Bom Fim, Porto Alegre - RS, Brazil","RS","Porto Alegre",NA,NA
"AP",1300,103,2,2,"Jardim Anhanguéra, Ribeirão Preto - SP, Brazil","SP","Ribeirão Preto",-20.71764965,-47.8945428390039
"AP",1900,110,3,2,"Canela, Salvador - BA, Brazil","BA","Salvador",-12.9931651,-38.5227317
"AP",1200,105,2,2,"Rua Irmã Serafina, 804 - Centro, Campinas - SP, Brazil","SP","Campinas",-22.9061693,-47.0554688
"AP",1500,56,2,2,"Avenida Senador José Augusto, 110 - Buritis, Belo Horizonte - MG, Brazil","MG","Belo Horizonte",-19.9812868,-43.978411
"AP",1500,55,2,2,"Rua João Marçal - Trindade, Florianópolis - SC, Brazil","SC","Florianópolis",-27.593752,-48.5236817
"AP",1000,49,1,1,"Avenida Wladimir Meirelles Ferreira - Jardim Botânico, Ribeirão Preto - SP, Brazil","SP","Ribeirão Preto",-21.2097137,-47.7990443
"AP",1500,40,1,1,"Avenida Farroupilha, 8353 - São José, Canoas - RS, Brazil","RS","Canoas",-29.8893688,-51.1666611
"AP",2200,100,3,1,"Rua Marechal Hermes - Gutierrez, Belo Horizonte - MG, Brazil","MG","Belo Horizonte",-19.9307519,-43.9569488
"AP",1850,126,3,1,"Rua Laureano - Vila Camilopolis, Santo André - SP, Brazil","SP","Santo André",-23.6191744,-46.5258053
"AP",1200,55,2,1,"Rua Soldado Dorival de Brito - Cidade Sao Jorge, Santo André - SP, Brazil","SP","Santo André",-23.67966545,-46.4807559458791
"AP",1400,70,2,1,"Avenida Sete de Setembro, 2155 - Vitória, Salvador - BA, Brazil","BA","Salvador",-13.0018966,-38.5315163
"AP",1300,62,1,1,"Rua Vinte e Cinco de Janeiro, 102 - Centro, São Paulo - SP, Brazil","SP","São Paulo",-23.5709754,-46.0359664
"AP",3500,108,3,4,"Rua Barão de Teffé, 127 - Jardim Ana Maria, Jundiaí - SP, Brazil","SP","Jundiaí",-23.1893506,-46.8991714
"AP",800,44,2,1,"Bonsucesso, Guarulhos - SP, Brazil","SP","Guarulhos",-23.4074483,-46.4099264
"AP",1190,48,1,2,"Avenida Mariland - Auxiliadora, Porto Alegre - RS, Brazil","RS","Porto Alegre",-30.017921,-51.1942724
"AP",2600,65,2,1,"Rua Manoel Dutra, 553 - Bela Vista, São Paulo - SP, Brazil","SP","São Paulo",-23.5554279,-46.6457053
"AP",990,51,2,1,"Avenida São José dos Campos, 3127 - Loteamento Parque São Martinho, Campinas - SP, Brazil","SP","Campinas",NA,NA
"AP",980,80,3,2,"Umuarama, Uberlândia - MG, Brazil","MG","Uberlândia",-18.881731,-48.2575942
"AP",1100,47,2,1,"Rua Augusto Lippel - Parque Campolim, Sorocaba - SP, Brazil","SP","Sorocaba",-23.5338428,-47.475833
"AP",550,46,2,1,"Campestre, Piracicaba - SP, Brazil","SP","Piracicaba",-22.7671199,-47.6610397
"AP",940,49,2,1,"Rua Olívio Basílio Marçal, 490 - São Pedro, Osasco - SP, Brazil","SP","Osasco",-23.5395678,-46.813589
"AP",1300,40,1,1,"Rua Doutor Alcindo Ribeiro Conrado - Centro, Franca - SP, Brazil","SP","Franca",-20.5410431,-47.4029411
"AP",1700,77,2,2,"Centro, Tatuí - SP, Brazil","SP","Tatuí",-23.3501231,-47.8498657
"AP",1800,67,2,2,"Rua São Mateus, 1100 - Jardim do Salso, Porto Alegre - RS, Brazil","RS","Porto Alegre",-30.0516904,-51.1694624694581
"AP",945,59,2,1,"Rua Luiz Barreto, 1082 - Campos Eliseos, Ribeirão Preto - SP, Brazil","SP","Ribeirão Preto",-21.1608657,-47.8067659
"AP",1200,70,2,1,"Rua José Bonifácio - São Domingos, Niterói - RJ, Brazil","RJ","Niterói",-22.8999253,-43.1292086
"AP",2167,43,1,1,"Rua José Eloy Pupo, 76 - Parque Monte Líbano, Mogi das Cruzes - SP, Brazil","SP","Mogi das Cruzes",NA,NA
"AP",1400,67,3,2,"Jardim Republica, Ribeirão Preto - SP, Brazil","SP","Ribeirão Preto",NA,NA
"AP",1700,61,2,2,"Rua A, 960 - São Sebastião, Porto Alegre - RS, Brazil","RS","Porto Alegre",-30.0001384,-51.1424772
"AP",1600,77,2,1,"Pátria Nova, Novo Hamburgo - RS, Brazil","RS","Novo Hamburgo",-29.6957978,-51.1299205
"AP",850,57,2,1,"Rua Itaboraí - Jardim Botânico, Porto Alegre - RS, Brazil","RS","Porto Alegre",-30.0516693,-51.1863278
"AP",1615,104,2,4,"Rua Brasílio Machado, 533 - Nova Petrópolis, São Bernardo do Campo - SP, Brazil","SP","São Bernardo do Campo",NA,NA
"AP",2200,100,2,2,"Rua José Benedito Salinas, 41 - Jardim Marajoara, São Paulo - SP, Brazil","SP","São Paulo",-23.6648476,-46.6883847
"AP",1600,80,2,1,"Rua Correia de Melo, 146 - Bom Retiro, São Paulo - SP, Brazil","SP","São Paulo",-23.5292574,-46.6372135
"AP",1600,65,2,2,"Avenida Martin Luther King, 2550 - Cidade São Francisco, São Paulo - SP, Brazil","SP","São Paulo",-23.5578244,-46.7625912
"AP",1200,70,2,1,"Rua dos Banqueiros, s/n - Sapopemba, São Paulo - SP, Brazil","SP","sn  Sapopemba São Paulo",-23.5862706,-46.5232678
"AP",2800,80,3,2,"Rua Tonelero, 194 - Copacabana, Rio de Janeiro - RJ, Brazil","RJ","Rio de Janeiro",-22.9657457,-43.183409
"AP",1100,45,2,1,"Avenida Guilhermina Cunha Coelho, 160 - City Ribeirão, Ribeirão Preto - SP, Brazil","SP","Ribeirão Preto",-21.2148006,-47.7873824
"AP",2500,105,3,3,"Jardim Guanabara, Campinas - SP, Brazil","SP","Campinas",-22.8930847,-47.0639837
"AP",1400,43,1,1,"Rua José Antônio Coelho, 300 - Vila Mariana, São Paulo - SP, Brazil","SP","São Paulo",-23.580038,-46.6428664
"AP",1900,62,2,1,"Rua Monsenhor Veras, 237 - Santana, Porto Alegre - RS, Brazil","RS","Porto Alegre",-30.0503865,-51.2025534
"AP",2300,64,2,2,"Vila Paulista, Guarulhos - SP, Brazil","SP","Guarulhos",-23.4708405,-46.425266962213
"AP",1500,51,2,1,"Rua do Trabalho, 404 - Vila Matilde, São Paulo - SP, Brazil","SP","São Paulo",-23.5421116,-46.519753
"AP",2000,40,1,1,"Rua Brigadeiro Galvão - Barra Funda, São Paulo - SP, Brazil","SP","São Paulo",NA,NA
"AP",1400,36,1,1,"Mirandópolis, São Paulo - SP, Brazil","SP","São Paulo",-21.1328313,-51.1029422
"AP",1700,85,2,2,"Vila Tupi, Praia Grande - SP, Brazil","SP","Praia Grande",-24.02429305,-46.4573973137262
"AP",4445,100,2,2,"Rua 1201 - Centro, Balneário Camboriú - SC, Brazil","SC","Balneário Camboriú",-26.9791933,-48.6401245
"AP",750,75,2,1,"Avenida São Leopoldo, 345 - São Leopoldo, Caxias do Sul - RS, Brazil","RS","Caxias do Sul",-29.1864434,-51.1846133
"AP",1300,65,1,1,"Rua São Caetano, 53 - Luz, São Paulo - SP, Brazil","SP","São Paulo",-23.53444586,-46.6324979
"AP",1900,62,2,1,"Praia de Itaparica, Vila Velha - ES, Brazil","ES","Vila Velha",-20.3709523,-40.3022483672397
"AP",760,65,2,1,"Industrial São Luiz, Contagem - MG, Brazil","MG","Contagem",NA,NA
"AP",1290,45,1,1,"Avenida Gomes Freire, 740 - Centro, Rio de Janeiro - RJ, Brazil","RJ","Rio de Janeiro",-22.9070211,-43.1854641
"AP",1950,66,3,2,"Rua Quinze de Novembro, 1330 - Centro, Barueri - SP, Brazil","SP","Barueri",-23.5014363,-46.8897117
"AP",981,48,2,1,"Rodovia Antônio Machado Sant'Anna, 215 - Bonfim Paulista, Ribeirão Preto - SP, Brazil","SP","Ribeirão Preto",-21.315266,-47.8242159
"AP",1000,47,2,1,"Conjunto Residencial Galo Branco, São José dos Campos - SP, Brazil","SP","São José dos Campos",NA,NA
"AP",1600,72,2,2,"Menino Deus, Porto Alegre - RS, Brazil","RS","Porto Alegre",-29.8530665,-50.5167176
"AP",1300,44,2,1,"Avenida Ezelino da Cunha Glória, 630 - Jardim Maricá, Mogi das Cruzes - SP, Brazil","SP","Mogi das Cruzes",-23.4969697,-46.1819787
"AP",3800,72,2,3,"Jardim Paulista, São Paulo - SP, Brazil","SP","São Paulo",-23.5674355,-46.6636917206251
"AP",2750,109,2,3,"Avenida Jacutinga - Indianópolis, São Paulo - SP, Brazil","SP","São Paulo",-23.6003317,-46.6690478
"AP",730,45,2,1,"Bonsucesso, Guarulhos - SP, Brazil","SP","Guarulhos",-23.4074483,-46.4099264
"AP",1100,67,2,2,"Rua Aurélio Francisco Gomes, 67 - Parque Flamboyant, Campos dos Goytacazes - RJ, Brazil","RJ","Campos dos Goytacazes",-21.7720219,-41.3052611
"AP",1850,69,2,2,"Vila Monte Alegre, Ribeirão Preto - SP, Brazil","SP","Ribeirão Preto",-21.1549551,-47.8380709
"AP",3000,52,1,1,"Rua Quatá, 835 - Vila Olímpia, São Paulo - SP, Brazil","SP","São Paulo",-23.5974717,-46.6795636
"AP",1200,32,1,1,"Avenida Professor Luiz Ignácio Anhaia Mello, 4659 - Vila Ema, São Paulo - SP, Brazil","SP","São Paulo",NA,NA
"AP",2200,85,2,2,"Rua José Hemetério Andrade, 180 - Buritis, Belo Horizonte - MG, Brazil","MG","Belo Horizonte",NA,NA
"AP",1400,70,2,1,"Santa Mônica, Uberlândia - MG, Brazil","MG","Uberlândia",-18.9090701,-48.2355051167523
"AP",1000,36,1,1,"Rua Coronel José Rodrigues Sobral, 72 - Partenon, Porto Alegre - RS, Brazil","RS","Porto Alegre",-30.0644644,-51.1861347
"AP",2800,48,2,1,"Rua Adriano Racine, 65 - Jardim Celeste, São Paulo - SP, Brazil","SP","São Paulo",NA,NA
"AP",850,30,1,1,"Avenida Rio de Janeiro, 1684 - Centro, Londrina - PR, Brazil","PR","Londrina",-23.3249615,-51.1590695
"AP",2200,140,3,3,"Rua Paulo Di Favari - Vila Caminho do Mar, São Bernardo do Campo - SP, Brazil","SP","São Bernardo do Campo",NA,NA
"AP",1200,63,2,1,"Rua Catanduva - Jardim Leocadia, Sorocaba - SP, Brazil","SP","Sorocaba",-23.4664758,-47.4346146
"AP",1500,52,2,1,"Rua Luiz Oscar de Carvalho, 75 - Trindade, Florianópolis - SC, Brazil","SC","Florianópolis",-27.5895263,-48.5200012
"AP",2000,80,2,2,"Vila Valparaiso, Santo André - SP, Brazil","SP","Santo André",-23.667826,-46.5473436
"AP",2700,50,1,1,"Rua Bela Cintra - Jardim América, São Paulo - SP, Brazil","SP","São Paulo",NA,NA
"AP",1121,58,2,1,"Rua Nossa Senhora Conceição Aparecida, 241 - Quitaúna, Osasco - SP, Brazil","SP","Osasco",NA,NA
"AP",3000,77,3,1,"Rua Ouvidor Peleja - Vila Mariana, São Paulo - SP, Brazil","SP","São Paulo",NA,NA
"AP",3700,160,4,2,"Avenida Afonso Pena, 1470 - Funcionários, Belo Horizonte - MG, Brazil","MG","Belo Horizonte",-19.9389552,-43.926157
"AP",2149,90,3,3,"Rua Jasmim - Chácara Primavera, Campinas - SP, Brazil","SP","Campinas",-22.9109367,-47.2084067
"AP",1550,67,1,2,"Alto Ipiranga, Mogi das Cruzes - SP, Brazil","SP","Mogi das Cruzes",-23.530426,-46.2017298
"AP",1600,72,2,3,"Butantã, São Paulo - SP, Brazil","SP","São Paulo",-23.5690555,-46.7218833626702
"AP",5500,88,2,3,"Rua Conselheiro Brotero - Higienópolis, São Paulo - SP, Brazil","SP","São Paulo",-23.5396349,-46.661481
"AP",3000,70,2,1,"Alameda Grajaú, 585 - Alphaville Comercial, Barueri - SP, Brazil","SP","Barueri",NA,NA
"AP",1000,50,1,2,"Rua Osório Franco Vilhena - Vila Nova Curuca, São Paulo - SP, Brazil","SP","São Paulo",-23.5151709,-46.419012
"AP",1200,67,2,1,"Parque Campolim, Sorocaba - SP, Brazil","SP","Sorocaba",-23.5262482,-47.4648183
"AP",1900,70,2,1,"Rua Cajaíba, 453 - Sumaré, São Paulo - SP, Brazil","SP","São Paulo",-23.5405027,-46.6827433
"AP",900,68,2,2,"Jardim Palma Travassos, Ribeirão Preto - SP, Brazil","SP","Ribeirão Preto",NA,NA
"AP",1350,55,2,1,"Rua José Ataliba Ortiz - Parque São Domingos, São Paulo - SP, Brazil","SP","São Paulo",-23.4989198,-46.7452231
"AP",6620,70,2,2,"Moema, São Paulo - SP, Brazil","SP","São Paulo",-23.597085,-46.6628884
"AP",1970,45,2,1,"Avenida Pires do Rio, 4615 - Itaquera, São Paulo - SP, Brazil","SP","São Paulo",-23.5340348,-46.454401
"AP",3000,70,2,2,"Jardim Marajoara, São Paulo - SP, Brazil","SP","São Paulo",-23.6553634,-46.6849371
"AP",1000,100,3,2,"Avenida Paraná, 123 - Centro, Londrina - PR, Brazil","PR","Londrina",-23.3107634,-51.1642871739665
"AP",1600,70,2,3,"Rua Izabel Negrão Bertotti, 101 - Mansões Santo Antônio, Campinas - SP, Brazil","SP","Campinas",NA,NA
"AP",4100,80,2,3,"Rua Alberto de Campos - Ipanema, Rio de Janeiro - RJ, Brazil","RJ","Rio de Janeiro",-22.9811522,-43.2027564
"AP",1110,80,2,1,"Rua Romualdo Lopes Cançado, 800 - Castelo, Belo Horizonte - MG, Brazil","MG","Belo Horizonte",-19.8922628,-43.9962662
"AP",2620,67,2,1,"Avenida Doutor Roberto de Almeida Vinhas - Maracanã, Praia Grande - SP, Brazil","SP","Praia Grande",NA,NA
"AP",550,55,2,1,"Avenida da Saudade - Campos Eliseos, Ribeirão Preto - SP, Brazil","SP","Ribeirão Preto",NA,NA
"AP",1544,60,2,1,"Rua Gavião Peixoto, 401 - Icaraí, Niterói - RJ, Brazil","RJ","Niterói",-22.90315,-43.1106634
"AP",850,45,2,1,"Recreio São Judas Tadeu, São Carlos - SP, Brazil","SP","São Carlos",NA,NA
"AP",3500,144,4,5,"Avenida Wladimir Meirelles Ferreira - Jardim Botânico, Ribeirão Preto - SP, Brazil","SP","Ribeirão Preto",-21.2097137,-47.7990443
"AP",4500,125,3,4,"Rua Baturité - Aclimação, São Paulo - SP, Brazil","SP","São Paulo",-23.5699076,-46.6283323
"AP",1900,59,1,1,"Praça José de Alencar - Flamengo, Rio de Janeiro - RJ, Brazil","RJ","Rio de Janeiro",-22.9332063,-43.1775770899668
"AP",1500,60,2,2,"Rua Rodrigues Dórea, 428 - Jardim Armacao, Salvador - BA, Brazil","BA","Salvador",-12.986921,-38.4348506
"AP",1800,69,2,2,"Avenida Clavásio Alves da Silva, 820 - Casa Verde, São Paulo - SP, Brazil","SP","São Paulo",NA,NA
"AP",1800,40,1,1,"Rua Marechal Cantuária, 75 - Urca, Rio de Janeiro - RJ, Brazil","RJ","Rio de Janeiro",-22.9510068,-43.1681974
"AP",1100,36,1,1,"Residencial Flórida, Ribeirão Preto - SP, Brazil","SP","Ribeirão Preto",NA,NA
"AP",1100,103,3,2,"Centro, Ribeirão Preto - SP, Brazil","SP","Ribeirão Preto",-21.1780948,-47.8093737
"AP",2700,75,2,1,"Barcelona, São Caetano do Sul - SP, Brazil","SP","São Caetano do Sul",-23.6203476,-46.5504286
"AP",850,33,1,1,"Rua Engenheiro Leopoldo Vila Nova, 55 - São Cristovão, Passo Fundo - RS, Brazil","RS","Passo Fundo",-28.2702518,-52.3867278
"AP",2000,96,3,1,"Jardim Botânico, Ribeirão Preto - SP, Brazil","SP","Ribeirão Preto",-21.2157061,-47.7953542
"AP",1200,47,1,2,"Jardim Doutor Julio de Mesquita Filho, Bragança Paulista - SP, Brazil","SP","Bragança Paulista",NA,NA
"AP",2800,123,3,1,"Rua Expedicionário Holz, 377 - América, Joinville - SC, Brazil","SC","Joinville",-26.3007313,-48.8538836
"AP",850,50,2,1,"Alameda dos Gladiolos - Jardim Simus, Sorocaba - SP, Brazil","SP","Sorocaba",-23.4988614,-47.4969744
"AP",1700,77,3,1,"Avenida Braz Olaia Acosta - Nova Aliança, Ribeirão Preto - SP, Brazil","SP","Ribeirão Preto",-21.2125872,-47.8195344
"AP",1300,33,1,1,"Avenida do Estado - Cambuci, São Paulo - SP, Brazil","SP","São Paulo",-23.5643365,-46.6108561
"AP",1500,70,1,1,"Rua Álvares de Azevedo, 77 - Icaraí, Niterói - RJ, Brazil","RJ","Niterói",-22.9032318571429,-43.1136517142857
"AP",1700,40,1,1,"Vila Altinópolis, Bauru - SP, Brazil","SP","Bauru",-22.328102,-49.0634905
"AP",5500,130,3,4,"Enseada, Guarujá - SP, Brazil","SP","Guarujá",-23.9840599,-46.2311059
"AP",900,55,2,1,"Vila Fiori, Sorocaba - SP, Brazil","SP","Sorocaba",-23.4775412,-47.4667724
"AP",2100,100,3,1,"Avenida Princesa Isabel, 282 - Copacabana, Rio de Janeiro - RJ, Brazil","RJ","Rio de Janeiro",-22.9651072,-43.1733607
"AP",2100,70,2,2,"Rua Paracatu, 575 - Saúde, São Paulo - SP, Brazil","SP","São Paulo",-23.6214381,-46.6409721
"AP",1500,42,2,1,"Rua Dona Tecla, 350 - Picanço, Guarulhos - SP, Brazil","SP","Guarulhos",-23.443966,-46.5391602
"AP",2500,70,1,2,"Rua Fonte da Saudade - Lagoa, Rio de Janeiro - RJ, Brazil","RJ","Rio de Janeiro",-22.9657406,-43.202523
"AP",2850,70,3,2,"Rua Alexandre Calame, 80 - Jaguaré, São Paulo - SP, Brazil","SP","São Paulo",-23.5537292,-46.7384636
"AP",900,45,1,1,"Rua General Bento Martins, 495 - Centro Histórico, Porto Alegre - RS, Brazil","RS","Porto Alegre",-30.0317639,-51.2351468
"AP",1700,55,1,1,"Rua Gama Cerqueira - Cambuci, São Paulo - SP, Brazil","SP","São Paulo",-23.5709779,-46.6197538
"AP",1500,65,3,2,"Rua Santa Rita do Passa Quatro, 121 - Jardim Nova Europa, Campinas - SP, Brazil","SP","Campinas",NA,NA
"AP",1850,62,2,2,"Rua Gonçalves Dias, 1115 - Menino Deus, Porto Alegre - RS, Brazil","RS","Porto Alegre",-30.0498859,-51.2201314
"AP",3200,123,3,1,"Jardim Botânico, Ribeirão Preto - SP, Brazil","SP","Ribeirão Preto",-21.2157061,-47.7953542
"AP",1650,80,2,2,"Barra, Tramandaí - RS, Brazil","RS","Tramandaí",-29.9817551,-50.1238096
"AP",2900,110,2,2,"Consolação, São Paulo - SP, Brazil","SP","São Paulo",-23.557818,-46.6605373
"AP",2000,50,1,1,"Alameda Itu, 285 - Jardim Paulista, São Paulo - SP, Brazil","SP","São Paulo",-23.5666025,-46.6563894
"AP",667,40,1,1,"Jardim Paulistano, São Carlos - SP, Brazil","SP","São Carlos",-21.9948793,-47.8979829
"AP",2200,50,1,1,"Avenida Doutor Altino Arantes - Vila Clementino, São Paulo - SP, Brazil","SP","São Paulo",NA,NA
"AP",1500,63,2,1,"Rua São Tiago, 312 - Jardim Cocaia, Guarulhos - SP, Brazil","SP","Guarulhos",-23.4391506,-46.5197436
"AP",1600,78,3,2,"Rua Senador Soares - Vila Isabel, Rio de Janeiro - RJ, Brazil","RJ","Rio de Janeiro",-22.9198939,-43.2414887
"AP",2600,65,2,1,"Rua João Moura, 1182 - Pinheiros, São Paulo - SP, Brazil","SP","São Paulo",-23.5556538,-46.6809554
"AP",900,90,3,2,"Santa Mônica, Uberlândia - MG, Brazil","MG","Uberlândia",-18.9090701,-48.2355051167523
"AP",1100,53,2,1,"Santa Maria, Osasco - SP, Brazil","SP","Osasco",-23.5615472,-46.780315
"AP",1700,40,1,1,"Vila Altinópolis, Bauru - SP, Brazil","SP","Bauru",-22.328102,-49.0634905
"AP",1600,74,2,2,"Jardim Maria Augusta, Taubaté - SP, Brazil","SP","Taubaté",-23.0253723,-45.5442469
"AP",1450,74,1,2,"Vila Osasco, Osasco - SP, Brazil","SP","Osasco",-23.5391101,-46.7823571
"AP",700,47,1,1,"Travessa Fagundes Varela, 36 - Nossa Senhora de Fátima, Santa Maria - RS, Brazil","RS","Santa Maria",-29.6901537,-53.8128078
"AP",3500,96,3,3,"Jardim São Luiz, Ribeirão Preto - SP, Brazil","SP","Ribeirão Preto",-20.7426747,-48.8900346
"AP",3700,100,3,3,"Funcionários, Belo Horizonte - MG, Brazil","MG","Belo Horizonte",-19.9325162,-43.9273182734633
"AP",1200,39,1,1,"Avenida Presidente Juscelino Kubitschek - Monte Castelo, São José dos Campos - SP, Brazil","SP","São José dos Campos",-23.1821424,-45.865581
"AP",1400,46,2,1,"Rodovia Admar Gonzaga - Itacorubi, Florianópolis - SC, Brazil","SC","Florianópolis",-27.58709,-48.4983343
"AP",1804,63,2,1,"Avenida do Café - Vila Amélia, Ribeirão Preto - SP, Brazil","SP","Ribeirão Preto",NA,NA
"AP",1000,34,1,1,"Rua Boaventura, 1003 - Liberdade, Belo Horizonte - MG, Brazil","MG","Belo Horizonte",-19.8630226,-43.9552712
"AP",2400,49,1,1,"Melville Empresarial Ii, Barueri - SP, Brazil","SP","Barueri",-23.4838174,-46.8492753
"AP",6800,170,3,1,"Alameda Lorena - Jardim América, São Paulo - SP, Brazil","SP","São Paulo",NA,NA
"AP",3300,67,2,2,"Rua Tomaz Gonzaga, 706 - Lourdes, Belo Horizonte - MG, Brazil","MG","Belo Horizonte",-19.9322829,-43.9435886
"AP",1400,44,2,1,"Avenida Professor Edgar Santos, 514 - Artur Alvim, São Paulo - SP, Brazil","SP","São Paulo",-23.5496472,-46.4969781
"AP",1650,56,2,2,"Avenida Bartholomeu de Carlos, 901 - Picanço, Guarulhos - SP, Brazil","SP","Guarulhos",NA,NA
"AP",1200,33,1,1,"Alameda Eduardo Prado, 150 - Campos Eliseos, São Paulo - SP, Brazil","SP","São Paulo",NA,NA
"AP",1800,65,3,2,"Rua Hermantino Coelho, 743 - Mansões Santo Antônio, Campinas - SP, Brazil","SP","Campinas",NA,NA
"AP",3300,60,2,2,"Rua dos Americanos, 838 - Barra Funda, São Paulo - SP, Brazil","SP","São Paulo",NA,NA
"AP",1700,84,2,1,"Parque São Lourenço, Indaiatuba - SP, Brazil","SP","Indaiatuba",NA,NA
"AP",2500,75,2,2,"Avenida Brigadeiro Luís Antônio - Bela Vista, São Paulo - SP, Brazil","SP","São Paulo",-23.5572167,-46.6406195
"AP",2200,73,2,2,"Rua Nanuque - Vila Leopoldina, São Paulo - SP, Brazil","SP","São Paulo",-23.5291793,-46.7282666
"AP",650,65,3,2,"Avenida da Saudade - Campos Eliseos, Ribeirão Preto - SP, Brazil","SP","Ribeirão Preto",NA,NA
"AP",850,61,2,1,"Rua Laura Maiello Kook - Jardim Novo Mundo, Sorocaba - SP, Brazil","SP","Sorocaba",NA,NA
"AP",2300,55,2,1,"Rua Engenheiro Américo de Carvalho Ramos, 44 - Vila Gumercindo, São Paulo - SP, Brazil","SP","São Paulo",-23.6038047,-46.6197885
"AP",1250,30,1,1,"Avenida Braz Olaia Acosta - Nova Aliança, Ribeirão Preto - SP, Brazil","SP","Ribeirão Preto",-21.2125872,-47.8195344
"AP",2800,77,2,2,"Rua Eça de Queiroz - Vila Mariana, São Paulo - SP, Brazil","SP","São Paulo",-23.5781643,-46.6409268
"AP",1800,51,2,1,"Rua Raul Pompéia - Copacabana, Rio de Janeiro - RJ, Brazil","RJ","Rio de Janeiro",-22.9820983,-43.1922743
"AP",2300,73,2,2,"Rua da Chibata - Vila Andrade, São Paulo - SP, Brazil","SP","São Paulo",-23.6257769,-46.7439616
"AP",2000,70,3,2,"Avenida Interlagos, 5699 - Interlagos, São Paulo - SP, Brazil","SP","São Paulo",-23.6957641,-46.6999822
"AP",2000,41,1,1,"Rua Rubens Meireles, 99 - Barra Funda, São Paulo - SP, Brazil","SP","São Paulo",NA,NA
"AP",2750,147,3,2,"Centro, Tramandaí - RS, Brazil","RS","Tramandaí",-29.9853243,-50.1356799
"AP",3500,57,2,2,"Avenida Brigadeiro Luís Antônio - Bela Vista, São Paulo - SP, Brazil","SP","São Paulo",-23.5572167,-46.6406195
"AP",1600,52,1,1,"Rua Bueno de Andrade, 674 - Aclimação, São Paulo - SP, Brazil","SP","São Paulo",-23.5634338,-46.6315739
"AP",600,50,1,1,"Rua Romeu Engracia de Faria - Nova Aliança, Ribeirão Preto - SP, Brazil","SP","Ribeirão Preto",-21.2189413,-47.8220033
"AP",2200,64,3,2,"Rua Hipódromo, 1495 - Móoca, São Paulo - SP, Brazil","SP","São Paulo",NA,NA
"AP",2100,57,2,2,"Rua das Pitangueiras - Jardim, Santo André - SP, Brazil","SP","Santo André",-23.6498144,-46.5405707
"AP",750,70,2,1,"Panazzolo, Caxias do Sul - RS, Brazil","RS","Caxias do Sul",-29.1807013,-51.1764772
"AP",850,38,2,1,"Jardim Piza, Londrina - PR, Brazil","PR","Londrina",-23.3592518,-51.13997
"AP",1200,65,2,1,"Santa Mônica, Uberlândia - MG, Brazil","MG","Uberlândia",-18.9090701,-48.2355051167523
"AP",1400,74,2,2,"Vila Ana Maria, Ribeirão Preto - SP, Brazil","SP","Ribeirão Preto",-20.2439761,-47.4724542
"AP",3300,124,3,3,"Centro, Taubaté - SP, Brazil","SP","Taubaté",-22.9281753,-45.4612141
"AP",4000,110,2,2,"Avenida Universitário, 585 - Alphaville, Santana de Parnaíba - SP, Brazil","SP","Santana de Parnaíba",NA,NA
"AP",850,45,1,1,"Rua Vicente Ferreira Leite, 361 - Vila Siqueira, São Paulo - SP, Brazil","SP","São Paulo",NA,NA
"AP",1100,63,1,1,"Rua Isolethe Augusta Sousa Aranha, 140 - Centro, Campinas - SP, Brazil","SP","Campinas",NA,NA
"AP",2600,52,1,1,"Rua Álvaro Luís Roberto de Assumpção, 43 - Brooklin, São Paulo - SP, Brazil","SP","São Paulo",NA,NA
"AP",4800,68,2,2,"Rua Professor José Leite e Oiticica - Brooklin, São Paulo - SP, Brazil","SP","São Paulo",-23.6202418,-46.698311
"AP",750,56,2,1,"Rua Marau, 338 - Vera Cruz, Passo Fundo - RS, Brazil","RS","Passo Fundo",-28.2433145,-52.4417965
"AP",1300,110,3,2,"Rua Gonzaga de Campos, 222 - Todos os Santos, Rio de Janeiro - RJ, Brazil","RJ","Rio de Janeiro",-22.8887526,-43.2874722
"AP",1500,46,1,1,"Rua Capitão Emídio - São Dimas, Piracicaba - SP, Brazil","SP","Piracicaba",-22.7138271,-47.641748
"AP",1300,35,1,1,"Rua Frederico Abranches, 164 - Vila Buarque, São Paulo - SP, Brazil","SP","São Paulo",NA,NA
"AP",500,55,2,1,"Colorado, Teresina - PI, Brazil","PI","Teresina",-5.0959967,-42.7349372
"AP",2000,107,3,4,"Jardim Paulista, Ribeirão Preto - SP, Brazil","SP","Ribeirão Preto",-21.1807797,-47.7942687
"AP",3000,50,1,1,"Melville Empresarial Ii, Barueri - SP, Brazil","SP","Barueri",-23.4838174,-46.8492753
"AP",2100,78,3,2,"Rua Alexandre Benois, 165 - Vila Andrade, São Paulo - SP, Brazil","SP","São Paulo",-23.6372143,-46.7384077
"AP",850,41,2,1,"Rua José Iuchno, 151 - Hípica, Porto Alegre - RS, Brazil","RS","Porto Alegre",NA,NA
"AP",1900,75,2,2,"Rua Franco da Rocha, 1900 - Vila Junqueira, Santo André - SP, Brazil","SP","Santo André",-23.688847,-46.5103736
"AP",1300,45,2,1,"Reserva Belas Nacoes, Bauru - SP, Brazil","SP","Bauru",NA,NA
"AP",1800,79,3,1,"Rua José de Alencar, 1364 - Alto da Rua XV, Curitiba - PR, Brazil","PR","Curitiba",-25.4232531,-49.2530721
"AP",1800,58,2,1,"Servidão Fedrigo - Centro, Florianópolis - SC, Brazil","SC","Florianópolis",-27.5896967,-48.5450967
"AP",650,48,2,1,"Rua Benedito Camargo - Jardim Guadalajara, Sorocaba - SP, Brazil","SP","Sorocaba",NA,NA
"AP",1000,58,2,1,"Senador Vasconcelos, Rio de Janeiro - RJ, Brazil","RJ","Rio de Janeiro",-22.8953684,-43.5288566
"AP",2000,95,3,2,"Jardim Bethania, São Carlos - SP, Brazil","SP","São Carlos",-22.0145796,-47.8999569
"AP",1800,97,2,2,"Perdizes, São Paulo - SP, Brazil","SP","São Paulo",-23.5379295,-46.680670510854
"AP",1635,84,2,1,"Rua Nelly Pellegrino, 801 - Olímpico, São Caetano do Sul - SP, Brazil","SP","São Caetano do Sul",NA,NA
"AP",3000,95,3,4,"Cambuí, Campinas - SP, Brazil","SP","Campinas",-22.892222,-47.049722
"AP",1000,47,2,1,"Avenida Londres - Jardim Europa, Sorocaba - SP, Brazil","SP","Sorocaba",-23.5201022,-47.48591
"AP",2600,68,2,1,"Auxiliadora, Porto Alegre - RS, Brazil","RS","Porto Alegre",-30.0200106,-51.1905879
"AP",1450,64,2,1,"Travessa Marta da Rocha, 54 - Abolição, Rio de Janeiro - RJ, Brazil","RJ","Rio de Janeiro",-22.8854902,-43.2967176
"AP",1900,52,1,1,"Boqueirão, Santos - SP, Brazil","SP","Santos",-23.966065,-46.3229913
"AP",4000,65,2,2,"Rua Professor Vahia de Abreu - Vila Olímpia, São Paulo - SP, Brazil","SP","São Paulo",-23.6014864,-46.680648
"AP",950,119,2,2,"Órfãs, Ponta Grossa - PR, Brazil","PR","Ponta Grossa",-25.0714876,-50.1599955
"AP",1938,42,1,1,"Rua Frei Caneca, 679 - Consolação, São Paulo - SP, Brazil","SP","São Paulo",-23.559038,-46.6588418
"AP",2500,98,2,2,"Avenida Ijuí, 161 - Petrópolis, Porto Alegre - RS, Brazil","RS","Porto Alegre",-30.0384635,-51.1873967
"AP",2200,73,3,2,"Rua Campos Sales, 1545 - Jardim Esperança, Barueri - SP, Brazil","SP","Barueri",-23.4991783,-46.8761902
"AP",1500,90,3,1,"Rua Chile - Jardim Irajá, Ribeirão Preto - SP, Brazil","SP","Ribeirão Preto",-21.2052834,-47.7966386
"AP",1325,45,2,1,"Cidade Jardim, São Carlos - SP, Brazil","SP","São Carlos",-22.0001853,-47.8946432
"AP",2200,58,1,2,"Avenida Angélica, 439 - Santa Cecília, São Paulo - SP, Brazil","SP","São Paulo",-23.5410395,-46.6555573
"AP",1000,65,1,2,"City Ribeirão, Ribeirão Preto - SP, Brazil","SP","Ribeirão Preto",-21.2155941,-47.7810541
"AP",1400,56,2,1,"Avenida Padre Arlindo Vieira, 1035 - Vila das Mercês, São Paulo - SP, Brazil","SP","São Paulo",-23.6305085,-46.6039489
"AP",1350,54,2,1,"Avenida Santa Cruz - Jardim Vera Cruz, Sorocaba - SP, Brazil","SP","Sorocaba",-23.5133718,-47.4966423
"AP",1650,55,3,2,"Continental, Osasco - SP, Brazil","SP","Osasco",-23.5277015,-46.7759232
"AP",1450,66,2,1,"Rua José João Martendal - Carvoeira, Florianópolis - SC, Brazil","SC","Florianópolis",-27.5971666,-48.5259636
"AP",1900,40,1,1,"Rua Gustavo Sampaio - Leme, Rio de Janeiro - RJ, Brazil","RJ","Rio de Janeiro",-22.9621191,-43.1680784
"AP",1100,64,2,1,"Rua Rodrigo Romeiro, 1045 - Vila Santo Antonio, Bauru - SP, Brazil","SP","Bauru",-22.3256126,-49.0658484
"AP",3300,93,3,2,"Rua Orlando Odilio Koerich, 308 - Jardim Atlântico, Florianópolis - SC, Brazil","SC","Florianópolis",-27.5812989,-48.5923736
"AP",2100,60,1,2,"Avenida das Américas, 19050 - Recreio Dos Bandeirantes, Rio de Janeiro - RJ, Brazil","RJ","Rio de Janeiro",-23.0179273337199,-43.4822434029528
"AP",750,57,2,1,"Avenida Caramuru, 2600 - Jardim Republica, Ribeirão Preto - SP, Brazil","SP","Ribeirão Preto",NA,NA
"AP",1650,65,2,1,"Rua Octávio de Moraes Lopes - Butantã, São Paulo - SP, Brazil","SP","São Paulo",NA,NA
"AP",950,65,2,1,"Saraiva, Uberlândia - MG, Brazil","MG","Uberlândia",-18.9221591,-48.2648964
"AP",1690,42,1,1,"Avenida Senador Vergueiro - Centro, São Bernardo do Campo - SP, Brazil","SP","São Bernardo do Campo",-23.6899031,-46.5523706
"AP",1350,51,2,1,"Rua Altamiro Di Bernardi - Campinas, São José - SC, Brazil","SC","São José",-27.5973388,-48.6095628
"AP",1200,96,2,3,"Rua Armando Couto de Magalhães Rodrigues - Vila Betânia, São José dos Campos - SP, Brazil","SP","São José dos Campos",NA,NA
"AP",2200,54,1,1,"Alameda dos Aicás, 392 - Moema, São Paulo - SP, Brazil","SP","São Paulo",-23.609025,-46.6582179
"AP",1100,40,2,1,"Rua Agrimensor Sugaya, 391 - Itaquera, São Paulo - SP, Brazil","SP","São Paulo",-23.5570373,-46.4451405
"AP",1800,90,2,2,"Rua Itararé, 446 - Vila Guilhermina, Praia Grande - SP, Brazil","SP","Praia Grande",NA,NA
"AP",4970,68,2,2,"Rua Professor José Leite e Oiticica - Brooklin, São Paulo - SP, Brazil","SP","São Paulo",-23.6202418,-46.698311
"AP",1360,70,2,1,"Rua Nossa Senhora Conceição Aparecida, 287 - Quitaúna, Osasco - SP, Brazil","SP","Osasco",NA,NA
"AP",1300,53,2,1,"Rua Napoleão Mazzali, 509 - Vila Campos Sales, Jundiaí - SP, Brazil","SP","Jundiaí",NA,NA
"AP",5000,155,3,5,"Rua Álvares Machado - Vila Bocaina, Mauá - SP, Brazil","SP","Mauá",-23.6695782,-46.4568148
"AP",1350,68,3,1,"Muchila I, Feira de Santana - BA, Brazil","BA","Feira de Santana",-12.2705727,-38.9684344
"AP",1600,75,2,2,"Rua Alagoas, 997 - Funcionários, Belo Horizonte - MG, Brazil","MG","Belo Horizonte",NA,NA
"AP",1100,49,2,1,"Campos Eliseos, Ribeirão Preto - SP, Brazil","SP","Ribeirão Preto",-21.1577178,-47.7985526
"AP",2000,90,3,1,"Barcelona, São Caetano do Sul - SP, Brazil","SP","São Caetano do Sul",-23.6203476,-46.5504286
"AP",2300,42,1,1,"Avenida Brigadeiro Luís Antônio, 323 - Bela Vista, São Paulo - SP, Brazil","SP","São Paulo",-23.5563459,-46.6398775
"AP",1000,36,1,1,"Avenida Professora Ana Maria Silvestre Adade, 513 - Parque das Universidades, Campinas - SP, Brazil","SP","Campinas",NA,NA
"AP",1200,54,2,1,"Rua Xingu, 415 - Jardim Bela Vista, Santo André - SP, Brazil","SP","Santo André",NA,NA
"AP",2000,32,1,1,"Avenida Coronel Lucas de Oliveira - Auxiliadora, Porto Alegre - RS, Brazil","RS","Porto Alegre",-30.0246504,-51.1950433
"AP",2200,40,1,1,"Panamby, São Paulo - SP, Brazil","SP","São Paulo",-23.5190045,-46.6676637
"AP",1400,43,1,1,"Avenida Mascote, 679 - Vila Mascote, São Paulo - SP, Brazil","SP","São Paulo",NA,NA
"AP",1500,36,1,1,"Consolação, São Paulo - SP, Brazil","SP","São Paulo",-23.557818,-46.6605373
"AP",700,46,2,1,"Avenida da Saudade - Campos Eliseos, Ribeirão Preto - SP, Brazil","SP","Ribeirão Preto",NA,NA
"AP",1200,74,2,2,"Vila Ana Maria, Ribeirão Preto - SP, Brazil","SP","Ribeirão Preto",-20.2439761,-47.4724542
"AP",700,40,1,1,"Parque Guarani, Juiz de Fora - MG, Brazil","MG","Juiz de Fora",NA,NA
"AP",1800,71,2,2,"Rua do Iano, 17 - Barreiros, São José - SC, Brazil","SC","São José",NA,NA
"AP",1500,60,1,1,"Rua Manoel Andrade, 373 - Pituba, Salvador - BA, Brazil","BA","Salvador",NA,NA
"AP",1778,70,3,3,"Rua Episcopal, 2474 - Centro, São Carlos - SP, Brazil","SP","São Carlos",-22.0141737,-47.8917452
"AP",2000,70,2,2,"Rua Barão de Icaraí, 16 - Flamengo, Rio de Janeiro - RJ, Brazil","RJ","Rio de Janeiro",-22.9389088,-43.1753714
"AP",4200,51,2,3,"Marapé, Santos - SP, Brazil","SP","Santos",-23.9561464,-46.3474319
"AP",720,76,2,1,"Rua Pioneiro Alfredo José da Costa, 368 - Jardim Alvorada, Maringá - PR, Brazil","PR","Maringá",-23.3868011,-51.9069974
"AP",4500,63,2,2,"Rua Soberana - Brooklin, São Paulo - SP, Brazil","SP","São Paulo",NA,NA
"AP",2300,82,2,2,"Rodovia Virgílio Várzea, 2236 - Saco Grande, Florianópolis - SC, Brazil","SC","Florianópolis",-27.5371447,-48.5085144
"AP",1150,63,2,2,"Jardim Interlagos, Ribeirão Preto - SP, Brazil","SP","Ribeirão Preto",-21.1912366,-47.7553699
"AP",2000,85,3,3,"Avenida Dom João VI, 800 - Acupe de Brotas, Salvador - BA, Brazil","BA","Salvador",NA,NA
"AP",2000,138,3,3,"Batel, Curitiba - PR, Brazil","PR","Curitiba",-25.4331254,-48.7247085
"AP",3500,90,3,3,"Rua Santa Catarina - Lourdes, Belo Horizonte - MG, Brazil","MG","Belo Horizonte",-19.9305219,-43.9458238
"AP",1300,70,2,3,"Rua Marquês de Jacarepaguá, 185 - Taquara, Rio de Janeiro - RJ, Brazil","RJ","Rio de Janeiro",-22.925856,-43.3644352
"AP",1200,51,2,2,"Rua Pantojo, 1353 - Água Rasa, São Paulo - SP, Brazil","SP","São Paulo",-23.5627884,-46.5654284
"AP",740,21,1,1,"Rua Maria Eduarda, 517 - Pantanal, Florianópolis - SC, Brazil","SC","Florianópolis",-27.6078111,-48.5165716
"AP",1300,49,1,2,"Rua Coronel Correia Lima, 55 - Tijuca, Rio de Janeiro - RJ, Brazil","RJ","Rio de Janeiro",NA,NA
"AP",1439,56,2,1,"Avenida Doutor Assis Ribeiro, 4500 - Cangaíba, São Paulo - SP, Brazil","SP","São Paulo",NA,NA
"AP",1300,50,2,1,"Avenida Raimundo Pereira de Magalhães - Pirituba, São Paulo - SP, Brazil","SP","São Paulo",-23.4652085,-46.7217569
"AP",4200,75,2,2,"Avenida Moema - Moema, São Paulo - SP, Brazil","SP","São Paulo",-23.6073304,-46.6551355
"AP",2800,87,3,2,"Avenida Rotary - Vila Brandina, Campinas - SP, Brazil","SP","Campinas",-22.895694,-47.0294473
"AP",2200,36,1,1,"Rua Doutor Carvalho de Mendonça, 20 - Campos Eliseos, São Paulo - SP, Brazil","SP","São Paulo",NA,NA
"AP",1950,47,1,1,"Alameda Campinas, 409 - Jardim Paulista, São Paulo - SP, Brazil","SP","São Paulo",-23.5650588,-46.6524026
"AP",2500,118,3,2,"Rua Giacomo Longobardi - Jardim Emilia, Sorocaba - SP, Brazil","SP","Sorocaba",-23.519384,-47.4575124
"AP",3450,55,1,1,"Brooklin, São Paulo - SP, Brazil","SP","São Paulo",-23.6268017,-46.6881279
"AP",1000,70,3,2,"Jardim Palma Travassos, Ribeirão Preto - SP, Brazil","SP","Ribeirão Preto",NA,NA
"AP",5000,55,2,2,"Rua da Paz - Alto Da Boa Vista, São Paulo - SP, Brazil","SP","São Paulo",NA,NA
"AP",5000,57,1,1,"Rua José Caballero - Gonzaga, Santos - SP, Brazil","SP","Santos",-23.9647201,-46.3308804
"AP",1950,50,1,1,"Centro, Curitiba - PR, Brazil","PR","Curitiba",-25.7765741,-49.3270131
"AP",1000,60,2,1,"Santa Cruz, Rio de Janeiro - RJ, Brazil","RJ","Rio de Janeiro",-22.9176248,-43.6834907
"AP",1000,50,1,1,"Jardim Sumare, Ribeirão Preto - SP, Brazil","SP","Ribeirão Preto",-21.1944535,-47.8096509
"AP",1500,85,2,2,"Rua Visconde de Cabo Frio - Tijuca, Rio de Janeiro - RJ, Brazil","RJ","Rio de Janeiro",-22.9313271,-43.2376291
"AP",2800,95,3,3,"Rua Doutor Paulo César, 25 - Icaraí, Niterói - RJ, Brazil","RJ","Niterói",-22.8992549,-43.1109863
"AP",1600,60,2,1,"Vila Nova, Campinas - SP, Brazil","SP","Campinas",-23.088095,-46.9446581
"AP",3000,51,2,1,"Rua Engenheiro José Sá Rocha, 48 - Vila Mariana, São Paulo - SP, Brazil","SP","São Paulo",NA,NA
"AP",250,60,1,1,"Rua Beija Flôr, 539 - Bombas, Bombinhas - SC, Brazil","SC","Bombinhas",-27.1391343,-48.5127551
"AP",3000,125,2,2,"Vila Independencia, Sorocaba - SP, Brazil","SP","Sorocaba",-23.5061642,-47.4694597
"AP",900,56,1,1,"Avenida Francisco Glicério, 148 - Centro, Campinas - SP, Brazil","SP","Campinas",-22.9135329,-47.055329
"AP",1200,53,2,1,"Rua Valdemar Celestino da Silva - Parque São Vicente, Mauá - SP, Brazil","SP","Mauá",NA,NA
"AP",800,42,1,2,"Jardim Nova Suiça, Piracicaba - SP, Brazil","SP","Piracicaba",NA,NA
"AP",6000,140,3,1,"Urca, Rio de Janeiro - RJ, Brazil","RJ","Rio de Janeiro",-22.954074,-43.1679727
"AP",3000,66,1,1,"Rua Rubens Meireles - Água Branca, São Paulo - SP, Brazil","SP","São Paulo",NA,NA
"AP",1690,50,1,1,"Rua das Uvaias - Saúde, São Paulo - SP, Brazil","SP","São Paulo",-23.6207952,-46.6408016
"AP",2300,62,2,2,"Rua Faustolo, 516 - Vila Romana, São Paulo - SP, Brazil","SP","São Paulo",-23.523881430956,-46.6904682037514
"AP",3500,110,3,3,"Rua Eça de Queiróz, 258 - Vila Mariana, São Paulo - SP, Brazil","SP","São Paulo",-23.5781643,-46.6409268
"AP",1700,60,2,2,"Parque Campolim, Sorocaba - SP, Brazil","SP","Sorocaba",-23.5262482,-47.4648183
"AP",625,36,1,1,"Rua Álvares de Azevedo, 195 - Nossa Senhora do Rosario, Santa Maria - RS, Brazil","RS","Santa Maria",-29.6794792,-53.8125724
"AP",1000,40,1,1,"Santa Cecília, São Paulo - SP, Brazil","SP","São Paulo",-23.5296595,-46.651893888265
"AP",2860,65,1,2,"Centro, São José dos Campos - SP, Brazil","SP","São José dos Campos",-23.1738329,-45.8856471535562
"AP",1300,118,3,1,"Rua Francisco Vale - Centro, Juiz de Fora - MG, Brazil","MG","Juiz de Fora",-21.7656637,-43.3519931
"AP",800,48,2,1,"Jardim das Bandeiras, Campinas - SP, Brazil","SP","Campinas",-23.1557867,-46.8710082
"AP",2600,61,1,1,"Bela Vista, Porto Alegre - RS, Brazil","RS","Porto Alegre",-30.0353173,-51.1903512
"AP",1800,56,3,1,"Rua Miguel Couto, 601 - Santa Tereza, Porto Alegre - RS, Brazil","RS","Porto Alegre",-30.0639843,-51.2291602
"AP",1000,70,2,1,"Vila da Penha, Rio de Janeiro - RJ, Brazil","RJ","Rio de Janeiro",-22.8435065,-43.3100585
"AP",1300,39,1,1,"Área Especial 2 Módulo F - Guara II, Brasília - DF, Brazil","DF","Brasília",NA,NA
"AP",3500,41,1,1,"Rua Artur Prado, 433 - Bela Vista, São Paulo - SP, Brazil","SP","São Paulo",-23.5609606,-46.6426224
"AP",6500,65,1,2,"Alameda dos Jurupis, 1267 - Moema, São Paulo - SP, Brazil","SP","São Paulo",-23.6136753,-46.6686225
"AP",1000,120,2,2,"Vila Imperial, São José do Rio Preto - SP, Brazil","SP","São José do Rio Preto",NA,NA
"AP",1307,40,2,1,"Avenida Vila Ema, 3000 - Vila Ema, São Paulo - SP, Brazil","SP","São Paulo",-23.581383,-46.564762
"AP",700,60,2,1,"Tubalina, Uberlândia - MG, Brazil","MG","Uberlândia",-18.9357767,-48.2986991
"AP",7300,96,3,3,"Pinheiros, São Paulo - SP, Brazil","SP","São Paulo",-23.567249,-46.7019515
"AP",900,74,2,2,"Rua Marlene Cavalcante - Jardim Guanabara, Macaé - RJ, Brazil","RJ","Macaé",NA,NA
"AP",1950,69,2,2,"Rua José Luiz Camargo Moreira, 202 - Mansões Santo Antônio, Campinas - SP, Brazil","SP","Campinas",NA,NA
"AP",13900,208,3,5,"Rua Doutor José Rodrigues Alves Sobrinho - Alto de Pinheiros, São Paulo - SP, Brazil","SP","São Paulo",-23.5524684,-46.7190389
"AP",950,54,2,1,"Areao, Taubaté - SP, Brazil","SP","Taubaté",-23.0003099,-45.5584753
"AP",1600,62,3,1,"Icarai, Amontada - CE, Brazil","CE","Amontada",-3.0274694,-39.6503127
"AP",1320,75,3,1,"Rua Professor Antônio Maria Moura, 954 - Jardim Neide, São Paulo - SP, Brazil","SP","São Paulo",NA,NA
"AP",1100,70,2,3,"Rua Engenheiro Artur Canguçu, 275 - Bonfim, Campinas - SP, Brazil","SP","Campinas",NA,NA
"AP",600,48,2,1,"Shopping Park, Uberlândia - MG, Brazil","MG","Uberlândia",-18.9786892,-48.2738794
"AP",3500,87,3,3,"Rua das Orquídeas, 332 - Jardim Pompéia, Indaiatuba - SP, Brazil","SP","Indaiatuba",-23.095185,-47.2224927
"AP",500,88,2,2,"Avenida da Saudade - Campos Eliseos, Ribeirão Preto - SP, Brazil","SP","Ribeirão Preto",NA,NA
"AP",1500,80,3,1,"Rua Ibitirama, 1701 - Vila Prudente, São Paulo - SP, Brazil","SP","São Paulo",-23.5946805,-46.5786298
"AP",2350,50,1,1,"Rua Paula Ney, 451 - Vila Mariana, São Paulo - SP, Brazil","SP","São Paulo",-23.5758074,-46.6337038
"AP",1600,31,1,1,"Rua Doutor Ivo Define Frasca, 21 - Vila Olímpia, São Paulo - SP, Brazil","SP","São Paulo",-23.5945038,-46.6736989
"AP",3000,54,2,2,"Rua Pensilvânia - Brooklin, São Paulo - SP, Brazil","SP","São Paulo",-23.6096601,-46.6890978
"AP",1150,100,3,2,"Avenida General Afonseca, 1878 - Vila Julieta, Resende - RJ, Brazil","RJ","Resende",NA,NA
"AP",1950,70,3,2,"Rua Jasmim - Chácara Primavera, Campinas - SP, Brazil","SP","Campinas",-22.9109367,-47.2084067
"AP",2000,60,1,1,"Melville Empresarial Ii, Barueri - SP, Brazil","SP","Barueri",-23.4838174,-46.8492753
"AP",850,117,2,3,"Rua Doutor Bernardino, 280 - Praça Seca, Rio de Janeiro - RJ, Brazil","RJ","Rio de Janeiro",-22.8951164,-43.3499504
"AP",900,50,1,1,"Jardim Aquarius, São José dos Campos - SP, Brazil","SP","São José dos Campos",-23.2106013,-45.9045217
"AP",2740,55,1,1,"Rua Capital Federal, 541 - Sumaré, São Paulo - SP, Brazil","SP","São Paulo",-23.5425485,-46.6824046
"AP",2100,70,2,2,"SQS 402 Bloco F, 309 - Asa Sul, Brasília - DF, Brazil","DF","Brasília",NA,NA
"AP",2700,58,2,1,"Cambuí, Campinas - SP, Brazil","SP","Campinas",-22.892222,-47.049722
"AP",4000,200,4,4,"Funcionários, Belo Horizonte - MG, Brazil","MG","Belo Horizonte",-19.9325162,-43.9273182734633
"AP",3253,49,1,1,"Rua Conde de Itu, 352 - Santo Amaro, São Paulo - SP, Brazil","SP","São Paulo",-23.6467953,-46.7032955
"AP",4178,23,1,1,"Vila Olímpia, São Paulo - SP, Brazil","SP","São Paulo",-23.5940278,-46.6842193
"AP",2700,70,2,2,"Itacorubi, Florianópolis - SC, Brazil","SC","Florianópolis",-27.5815293,-48.5041412
"AP",889,36,1,1,"Jardim Lutfalla, São Carlos - SP, Brazil","SP","São Carlos",-22.0054872,-47.8935566
"AP",1500,90,3,2,"Rua Engenheiros Rebouças, 1151 - Rebouças, Curitiba - PR, Brazil","PR","Curitiba",-25.4411171,-49.2571267
"AP",800,77,3,1,"Copacabana, Uberlândia - MG, Brazil","MG","Uberlândia",NA,NA
"AP",1690,66,3,2,"Avenida Dom Cláudio José Gonçalves Ponce de Leão, 140 - Vila Ipiranga, Porto Alegre - RS, Brazil","RS","Porto Alegre",NA,NA
"AP",1500,110,2,1,"Rua Coronel Moreira Cesar, 331 - Icaraí, Niterói - RJ, Brazil","RJ","Niterói",-22.9036329,-43.1140699
"AP",5040,70,2,2,"Ipanema, Rio de Janeiro - RJ, Brazil","RJ","Rio de Janeiro",-22.9839557,-43.2022163
"AP",1500,78,2,2,"Rua Rio Grande do Sul, 664 - Barro Preto, Belo Horizonte - MG, Brazil","MG","Belo Horizonte",-19.921337,-43.9461018
"AP",1763,59,2,1,"dois Gramado Portal, Guarulhos - SP, Brazil","SP","Guarulhos",NA,NA
"AP",900,49,1,1,"Nova Ribeirânia, Ribeirão Preto - SP, Brazil","SP","Ribeirão Preto",-21.19564675,-47.7814920639134
"AP",980,40,1,1,"Avenida Bento Gonçalves, 2042 - Partenon, Porto Alegre - RS, Brazil","RS","Porto Alegre",-30.0654021,-51.1514071
"AP",800,80,2,1,"Rua Paulo Firmeza - Tauape, Fortaleza - CE, Brazil","CE","Fortaleza",-3.7566187,-38.5068174
"AP",3950,100,3,3,"Avenida Prefeito Dulcídio Cardoso - Barra da Tijuca, Rio de Janeiro - RJ, Brazil","RJ","Rio de Janeiro",-23.005174,-43.3707371
"AP",4000,120,3,2,"Rua Boa Esperança, 201 - Sion, Belo Horizonte - MG, Brazil","MG","Belo Horizonte",-19.94884,-43.932947
"AP",870,45,2,1,"Rua Doutor Alfredo Zacharias, 842 - Vila Pagano, Valinhos - SP, Brazil","SP","Valinhos",NA,NA
"AP",2050,63,2,2,"Avenida Marechal Mário Guedes, 40 - Jaguaré, São Paulo - SP, Brazil","SP","São Paulo",-23.5496933,-46.7350256
"AP",2850,70,2,2,"CA 2, 0 - Setor de Habitações Individuais Norte, Brasília - DF, Brazil","DF","Brasília",NA,NA
"AP",2100,92,3,3,"Rua Egberto Ferreira de Arruda Camargo, 1200 - Parque da Hípica, Campinas - SP, Brazil","SP","Campinas",NA,NA
"AP",1500,43,1,1,"Rua Sebastião Cortes, 41 - Sumaré, São Paulo - SP, Brazil","SP","São Paulo",-23.5404459,-46.6788923
"AP",889,40,1,2,"Avenida Araraquara, 329 - Vila Brasília, São Carlos - SP, Brazil","SP","São Carlos",-21.996696,-47.877789
"AP",3550,213,3,3,"Rua Capitão Alberto Mendes Júnior, 576 - Água Fria, São Paulo - SP, Brazil","SP","São Paulo",-23.4845938,-46.6196512
"AP",1500,70,2,1,"Parque Industrial, São José do Rio Preto - SP, Brazil","SP","São José do Rio Preto",-20.802415,-49.3922951
"AP",2200,77,3,2,"Rua Clemente Zetola, 334 - Centro, São José dos Pinhais - PR, Brazil","PR","São José dos Pinhais",-25.5335937,-49.2100163
"AP",1000,70,2,1,"Rua Petrocochino, 77 - Vila Isabel, Rio de Janeiro - RJ, Brazil","RJ","Rio de Janeiro",-22.9146378,-43.2548365
"AP",1300,44,1,2,"Rua General Lima e Silva, 148 - Centro Histórico, Porto Alegre - RS, Brazil","RS","Porto Alegre",-30.0348534,-51.2260703
"AP",1050,46,2,1,"Parque das Constelacoes, Campinas - SP, Brazil","SP","Campinas",-22.7574755,-47.3093578043347
"AP",2276,55,2,1,"Rua Paris, 415 - Sumaré, São Paulo - SP, Brazil","SP","São Paulo",-23.5418308,-46.6873873
"AP",1550,70,2,1,"Tubalina, Uberlândia - MG, Brazil","MG","Uberlândia",-18.9357767,-48.2986991
"AP",2850,67,2,2,"Beco A, 8484 - Jardim do Salso, Porto Alegre - RS, Brazil","RS","Porto Alegre",NA,NA
"AP",5000,60,2,2,"Rua Ribeiro do Vale, 357 - Brooklin, São Paulo - SP, Brazil","SP","São Paulo",-23.6149986,-46.6897953
"AP",1700,47,2,1,"Mandaqui, São Paulo - SP, Brazil","SP","São Paulo",-23.4579405,-46.6412431436275
"AP",3000,85,2,2,"Rua Belisário Távora, 231 - Laranjeiras, Rio de Janeiro - RJ, Brazil","RJ","Rio de Janeiro",-22.9427841,-43.1928281
"AP",1400,75,3,1,"Avenida Jaguaré, 287 - Jaguaré, São Paulo - SP, Brazil","SP","São Paulo",-23.5568704,-46.7454255363697
"AP",850,32,1,1,"Avenida José Zilioli, 151 - Vila Sedenho, Araraquara - SP, Brazil","SP","Araraquara",NA,NA
"AP",1500,71,2,2,"Jardim Proença, Campinas - SP, Brazil","SP","Campinas",NA,NA
"AP",1400,35,1,1,"Rua Dona Inácia Uchôa, 620 - Vila Mariana, São Paulo - SP, Brazil","SP","São Paulo",-23.581587,-46.6290367
"AP",2500,48,1,1,"Rua Alagoas, 974 - Higienópolis, São Paulo - SP, Brazil","SP","São Paulo",-23.5434861,-46.6655346
"AP",1067,40,1,1,"Rua José Duarte de Souza, 180 - Jardim Santa Paula, São Carlos - SP, Brazil","SP","São Carlos",-21.9968362,-47.8990468
"AP",5136,32,2,1,"Centro, São Paulo - SP, Brazil","SP","São Paulo",-23.5503898,-46.6330809563329
"AP",1890,64,2,1,"Rua Senador Muniz Freire, 44 - Maracanã, Rio de Janeiro - RJ, Brazil","RJ","Rio de Janeiro",NA,NA
"AP",600,65,3,2,"Avenida da Saudade - Campos Eliseos, Ribeirão Preto - SP, Brazil","SP","Ribeirão Preto",NA,NA
"AP",1400,60,2,1,"Rua Mituto Mizumoto, 122 - Liberdade, São Paulo - SP, Brazil","SP","São Paulo",-23.558181,-46.6319634
"AP",4300,103,3,2,"Avenida Engenheiro Heitor Antônio Eiras Garcia, 000 - Jardim Esmeralda, São Paulo - SP, Brazil","SP","São Paulo",NA,NA
"AP",3000,139,4,4,"Jardim Canadá, Ribeirão Preto - SP, Brazil","SP","Ribeirão Preto",-21.2168867,-47.8103986
"AP",2125,60,2,2,"Estrada dos Bandeirantes, 8041 - Jacarepaguá, Rio de Janeiro - RJ, Brazil","RJ","Rio de Janeiro",-22.9709209,-43.41325415
"AP",2180,90,3,3,"Sion, Belo Horizonte - MG, Brazil","MG","Belo Horizonte",-19.9493624,-43.9325869
"AP",1300,50,1,1,"Presidente Altino, Osasco - SP, Brazil","SP","Osasco",-23.5312344,-46.7617426
"AP",550,47,2,1,"Chácaras Tubalina E Quartel, Uberlândia - MG, Brazil","MG","Uberlândia",-18.9239753,-48.3171477
"AP",2200,85,2,2,"Itaim Bibi, São Paulo - SP, Brazil","SP","São Paulo",-23.5843807,-46.6784441
"AP",1100,69,2,1,"Residencial Flórida, Ribeirão Preto - SP, Brazil","SP","Ribeirão Preto",NA,NA
"AP",1500,95,2,2,"Rua Visconde de São Leopoldo, 88 - Irajá, Rio de Janeiro - RJ, Brazil","RJ","Rio de Janeiro",-22.8399982,-43.324709
"AP",1500,45,2,1,"Rua Uruguai, 288/bloco H, apto. 204 - Tijuca, Rio de Janeiro - RJ, Brazil","RJ","apto 204  Tijuca",NA,NA
"AP",850,45,2,1,"Avenida Sertório, 400 - Navegantes, Porto Alegre - RS, Brazil","RS","Porto Alegre",-30.0001513,-51.1984119
"AP",1300,50,1,1,"Bom Retiro, São Paulo - SP, Brazil","SP","São Paulo",-23.5271385,-46.6368348465014
"AP",900,54,2,1,"Rua Oswald de Andrade, 855 - Vila Jordanopolis, São Bernardo do Campo - SP, Brazil","SP","São Bernardo do Campo",-23.6774203,-46.5793931
"AP",3600,66,2,2,"Avenida Raimundo Pereira de Magalhães, 757 - Vila Anastácio, São Paulo - SP, Brazil","SP","São Paulo",-23.5091525,-46.7151305
"AP",1000,47,2,1,"Parque Residencial Lagoinha, Ribeirão Preto - SP, Brazil","SP","Ribeirão Preto",NA,NA
"AP",1310,55,1,1,"Rua Buarque de Macedo, 358 - Jardim Brasil, Campinas - SP, Brazil","SP","Campinas",-22.8818977,-47.0661216
"AP",8180,69,1,1,"Consolação, São Paulo - SP, Brazil","SP","São Paulo",-23.557818,-46.6605373
"AP",900,46,1,1,"São Dimas, Piracicaba - SP, Brazil","SP","Piracicaba",-22.7126387,-47.6424252
"AP",850,60,2,1,"Rua Doutor Álvaro Guião - Vila Assis, Sorocaba - SP, Brazil","SP","Sorocaba",-23.509684,-47.4479878
"AP",2200,60,2,1,"Vila Dom Pedro II, São Paulo - SP, Brazil","SP","São Paulo",-21.1310318,-51.0950545
"AP",2000,159,3,2,"Jardim Jupira, Foz do Iguaçu - PR, Brazil","PR","Foz do Iguaçu",-25.5051089,-54.591451
"AP",1800,60,1,1,"Rua Doutor Albuquerque Lins, 565 - Santa Cecília, São Paulo - SP, Brazil","SP","São Paulo",-23.5331022,-46.6545742
"AP",2190,36,1,1,"Rudge Ramos, São Bernardo do Campo - SP, Brazil","SP","São Bernardo do Campo",-23.6590824,-46.5682591
"AP",1850,84,3,1,"Rua Kowarick - Jardim Bela Vista, Santo André - SP, Brazil","SP","Santo André",-23.6633555,-46.5379084
"AP",750,90,2,2,"Rua Lima Barreto - Califórnia, Nova Iguaçu - RJ, Brazil","RJ","Nova Iguaçu",-22.7621165,-43.4310418
"AP",1200,50,2,1,"Rua Comendador Carlo Mário Gardano, 100 - Centro, São Bernardo do Campo - SP, Brazil","SP","São Bernardo do Campo",-23.7182491,-46.5570759
"AP",1200,78,2,1,"Santa Mônica, Uberlândia - MG, Brazil","MG","Uberlândia",-18.9090701,-48.2355051167523
"AP",1200,81,2,1,"Rua Nelson Zang, 535 - Partenon, Porto Alegre - RS, Brazil","RS","Porto Alegre",-30.0600546,-51.1596314
"AP",1000,68,2,2,"Rua Aurélio Francisco Gomes - Parque Flamboyant, Campos dos Goytacazes - RJ, Brazil","RJ","Campos dos Goytacazes",-21.7720219,-41.3052611
"AP",2200,40,2,1,"Rua Afonso Pena - Bom Retiro, São Paulo - SP, Brazil","SP","São Paulo",-23.5289347,-46.6338976
"AP",3500,128,3,3,"Avenida Luiz Eduardo Toledo Prado - Vila do Golf, Ribeirão Preto - SP, Brazil","SP","Ribeirão Preto",-21.2351142,-47.8367387
"AP",2500,54,1,1,"Rua Santo Amaro - Bela Vista, São Paulo - SP, Brazil","SP","São Paulo",-23.5558515,-46.6400971
"AP",2200,50,1,1,"Avenida Jurema - Moema, São Paulo - SP, Brazil","SP","São Paulo",-23.6083361,-46.6590741
"AP",850,60,2,1,"Santa Mônica, Uberlândia - MG, Brazil","MG","Uberlândia",-18.9090701,-48.2355051167523
"AP",900,70,2,2,"Rua Doutor João Pinheiro - Jardim Glória, Juiz de Fora - MG, Brazil","MG","Juiz de Fora",-21.7530624,-43.3575659
"AP",950,49,1,1,"Partenon, Porto Alegre - RS, Brazil","RS","Porto Alegre",-30.0571593,-51.1919188
"AP",1200,53,2,1,"Bairro da Vossoroca, Sorocaba - SP, Brazil","SP","Sorocaba",NA,NA
"AP",980,51,2,1,"Avenida Marcelo Gervásio Dian - Loteamento Itatiba Park, Itatiba - SP, Brazil","SP","Itatiba",NA,NA
"AP",2739,54,1,1,"Rua Vergueiro, 903 - Aclimação, São Paulo - SP, Brazil","SP","São Paulo",-23.5625655,-46.6388934
"AP",900,110,2,2,"Rua Marechal Deodoro - Centro, Pelotas - RS, Brazil","RS","Pelotas",-31.7575063,-52.3402954
"AP",2500,128,3,3,"Alameda Itapecuru, 605 - Alphaville Industrial, Barueri - SP, Brazil","SP","Barueri",NA,NA
"AP",1350,92,3,2,"Centro, Nova Odessa - SP, Brazil","SP","Nova Odessa",-22.7811826,-47.2930121
"AP",1815,88,2,3,"Rua Iubatinga, 212 - Vila Andrade, São Paulo - SP, Brazil","SP","São Paulo",-23.6281608,-46.7342014
"AP",2500,180,3,4,"Rua Cambuci do Vale, 597 - Cidade Dutra, São Paulo - SP, Brazil","SP","São Paulo",-23.7142395,-46.7015565
"AP",2500,50,2,1,"Avenida Interlagos, 1609 - Jardim Marajoara, São Paulo - SP, Brazil","SP","São Paulo",-23.6670226,-46.6778288
"AP",720,48,2,1,"Jardim Bertoni, Americana - SP, Brazil","SP","Americana",NA,NA
"AP",1000,44,1,1,"Avenida Braz Olaia Acosta - Nova Aliança, Ribeirão Preto - SP, Brazil","SP","Ribeirão Preto",-21.2125872,-47.8195344
"AP",2400,54,2,1,"Rua Domingos Rodrigues - Lapa, São Paulo - SP, Brazil","SP","São Paulo",-23.5218914,-46.7074774
"AP",800,53,2,1,"Condominio Residencial Viva Vista, Sumare - SP, Brazil","SP","Sumare",NA,NA
"AP",1140,62,2,1,"Rua Tiradentes, 1933 - Nova Petrópolis, São Bernardo do Campo - SP, Brazil","SP","São Bernardo do Campo",NA,NA
"AP",2500,81,3,2,"Rua Doutor Moreira da Fonseca - Centro, Petrópolis - RJ, Brazil","RJ","Petrópolis",NA,NA
"AP",1200,37,1,1,"Rua Margarida, 166 - Barra Funda, São Paulo - SP, Brazil","SP","São Paulo",-23.529509,-46.6616659
"AP",1300,48,2,2,"Rua Monsenhor Manuel Gomes, 143 - São Cristóvão, Rio de Janeiro - RJ, Brazil","RJ","Rio de Janeiro",NA,NA
"AP",1100,65,1,2,"Avenida Orestes Lopes de Camargo Neto - City Ribeirão, Ribeirão Preto - SP, Brazil","SP","Ribeirão Preto",NA,NA
"AP",2000,61,2,1,"Rua Vieira de Morais, 1900 - Campo Belo, São Paulo - SP, Brazil","SP","São Paulo",-23.6184867,-46.6763666
"AP",2150,100,2,2,"Rua Professor Torres Homem, 367 - Embaré, Santos - SP, Brazil","SP","Santos",-23.9659591,-46.3128775
"AP",3346,42,1,1,"Vila Olímpia, São Paulo - SP, Brazil","SP","São Paulo",-23.5940278,-46.6842193
"AP",1500,86,3,3,"Jardim Irajá, Ribeirão Preto - SP, Brazil","SP","Ribeirão Preto",-21.2054658,-47.8028458
"AP",700,49,2,1,"Rua General Câmara - Ipiranga, Ribeirão Preto - SP, Brazil","SP","Ribeirão Preto",-21.1499013,-47.8231046
"AP",900,70,3,1,"Osvaldo Rezende, Uberlândia - MG, Brazil","MG","Uberlândia",-18.912946,-48.2926996
"AP",1875,127,2,2,"Higienopolis, São José do Rio Preto - SP, Brazil","SP","São José do Rio Preto",-21.1868226,-47.8075931
"AP",1200,65,2,2,"Centro, Teresina - PI, Brazil","PI","Teresina",-5.0897725,-42.8130528
"AP",1900,90,2,2,"Rua Serra de Bragança, 1363 - Vila Gomes Cardim, São Paulo - SP, Brazil","SP","São Paulo",-23.5432812,-46.5597149
"AP",1850,74,3,2,"Móoca, São Paulo - SP, Brazil","SP","São Paulo",-23.5606808,-46.5971924
"AP",1800,79,3,2,"Rua Correggio, 251 - Morumbi, São Paulo - SP, Brazil","SP","São Paulo",NA,NA
"AP",950,90,2,2,"Rua Os Dezoito do Forte, 146 - Nossa Senhora de Lourdes, Caxias do Sul - RS, Brazil","RS","Caxias do Sul",-29.1695405,-51.1648469
"AP",1200,55,3,2,"Rua Cláudio Gomes de Souza, 183 - Palmares, Belo Horizonte - MG, Brazil","MG","Belo Horizonte",-19.8712648,-43.9389073
"AP",1200,70,2,2,"Alameda do Açude - Granja dos Cavaleiros, Macaé - RJ, Brazil","RJ","Macaé",NA,NA
"AP",6000,66,1,2,"Rua Gomes de Carvalho - Vila Olímpia, São Paulo - SP, Brazil","SP","São Paulo",-23.5934717,-46.6916488
"AP",4000,82,2,3,"Rua Jesuíno Arruda - Itaim Bibi, São Paulo - SP, Brazil","SP","São Paulo",-23.5819849,-46.6743898
"AP",1700,89,3,2,"Avenida Presidente Affonso Camargo, 2125 - Cristo Rei, Curitiba - PR, Brazil","PR","Curitiba",-25.4378032,-49.2388068
"AP",4000,166,4,4,"Rua Castelo de Edimburgo, 200 - Castelo, Belo Horizonte - MG, Brazil","MG","Belo Horizonte",-19.8783474,-44.000258
"AP",1100,50,2,1,"dois Gramado Portal, Guarulhos - SP, Brazil","SP","Guarulhos",NA,NA
"AP",3800,56,2,1,"Rua Caio Prado, 363 - Consolação, São Paulo - SP, Brazil","SP","São Paulo",-23.5511512,-46.6477324
"AP",1650,70,2,1,"Parque da Vila Prudente, São Paulo - SP, Brazil","SP","São Paulo",-22.1315997,-51.3901637993573
"AP",600,47,2,1,"Avenida da Saudade - Campos Eliseos, Ribeirão Preto - SP, Brazil","SP","Ribeirão Preto",NA,NA
"AP",2000,80,3,2,"Alphaville Industrial, Barueri - SP, Brazil","SP","Barueri",NA,NA
"AP",1479,56,2,1,"Avenida Manoel Pedro Pimentel, 205 - Centro, Osasco - SP, Brazil","SP","Osasco",-23.5320184,-46.759977
"AP",2512,33,1,1,"Bela Vista, São Paulo - SP, Brazil","SP","São Paulo",-23.5622095,-46.6477664878894
"AP",1400,20,3,2,"Rua Araguari - Jardim Ismenia, São José dos Campos - SP, Brazil","SP","São José dos Campos",-23.1737184,-45.8490672
"AP",4200,73,3,2,"Avenida Lins de Vasconcelos - Vila Mariana, São Paulo - SP, Brazil","SP","São Paulo",-23.5818955,-46.6263115
"AP",1120,80,2,1,"Rua Marquês do Herval, 10 - Nossa Senhora de Lourdes, Santa Maria - RS, Brazil","RS","Santa Maria",-29.7050605,-53.8038274
"AP",900,100,3,3,"Martins, Uberlândia - MG, Brazil","MG","Uberlândia",-18.9095759,-48.2817182
"AP",1200,62,2,1,"Jardim Zara, Ribeirão Preto - SP, Brazil","SP","Ribeirão Preto",-21.1786752,-47.7675923
"AP",1200,70,3,2,"Rua Barão de Anhumas, 152 - Bosque, Campinas - SP, Brazil","SP","Campinas",NA,NA
"AP",1300,42,1,2,"Rua Dois de Dezembro - Flamengo, Rio de Janeiro - RJ, Brazil","RJ","Rio de Janeiro",NA,NA
"AP",2600,52,1,1,"Rua Álvaro Luís Roberto de Assumpção - Campo Belo, São Paulo - SP, Brazil","SP","São Paulo",-23.6186344,-46.6779234
"AP",4200,104,2,3,"Rua Alecrins, 700 - Cambuí, Campinas - SP, Brazil","SP","Campinas",NA,NA
"AP",1600,35,1,1,"Rua Galeno de Castro, 730 - Santo Amaro, São Paulo - SP, Brazil","SP","São Paulo",NA,NA
"AP",2000,56,2,1,"Avenida Doutor Gentil de Moura - Ipiranga, São Paulo - SP, Brazil","SP","São Paulo",-23.602557,-46.6141603
"AP",1200,58,1,1,"Rua Doutor Quirino, 315 - Cambuí, Campinas - SP, Brazil","SP","Campinas",-22.902741,-47.0592056
"AP",1400,75,2,2,"Rua Noronha Torrezão, 92 - Santa Rosa, Niterói - RJ, Brazil","RJ","Niterói",-22.8966834,-43.1008418
"AP",3200,47,1,2,"Rua Castilho - Brooklin, São Paulo - SP, Brazil","SP","São Paulo",-23.6133318,-46.6912012
"AP",1400,90,2,1,"Rua Miguel Ângelo, 661 - Cachambi, Rio de Janeiro - RJ, Brazil","RJ","Rio de Janeiro",-22.8881009,-43.2662263
"AP",750,48,2,1,"Avenida Monteiro Lobato - VILA VIRGINIA, Ribeirão Preto - SP, Brazil","SP","Ribeirão Preto",NA,NA
"AP",1400,38,1,1,"Rua Dois de Julho, 40 - Ipiranga, São Paulo - SP, Brazil","SP","São Paulo",-23.5960775,-46.6032808
"AP",1600,67,3,1,"Vila Santos, São Paulo - SP, Brazil","SP","São Paulo",-23.0928307,-45.6980665
"AP",900,60,2,2,"Rua Laura Teles, 242 - Tanque, Rio de Janeiro - RJ, Brazil","RJ","Rio de Janeiro",-22.9255524,-43.3620285
"AP",1200,77,3,2,"Rua Visconde de Sepetiba, 86 - Centro, Niterói - RJ, Brazil","RJ","Niterói",-22.8851591,-43.1200062
"AP",2500,73,2,4,"Rua Cavalheiro Torquato Rizzi - Jardim São Luiz, Ribeirão Preto - SP, Brazil","SP","Ribeirão Preto",NA,NA
"AP",800,68,3,3,"Rua General Osório - Centro, Ribeirão Preto - SP, Brazil","SP","Ribeirão Preto",-21.1725071,-47.8130203
"AP",1000,49,2,1,"Rua Manoel João da Silva, 155 - Vila Inema, Hortolândia - SP, Brazil","SP","Hortolândia",-22.8841843,-47.1779953
"AP",2500,43,1,1,"Rua Duque de Caxias, 880 - Bosque, Campinas - SP, Brazil","SP","Campinas",NA,NA
"AP",950,75,2,2,"Rua Idilia Menegotto Rasia, 369 - Salgado Filho, Caxias do Sul - RS, Brazil","RS","Caxias do Sul",NA,NA
"AP",2900,46,1,1,"Rua Aguiar de Barros - Bela Vista, São Paulo - SP, Brazil","SP","São Paulo",NA,NA
"AP",750,44,1,1,"Rua Orfanotrófio, 900 - Nonoai, Porto Alegre - RS, Brazil","RS","Porto Alegre",-30.0835033,-51.2236833
"AP",1150,52,1,1,"Jardim Maria Rosa, Taboão da Serra - SP, Brazil","SP","Taboão da Serra",-23.6137501,-46.7676754
"AP",720,45,1,1,"Boa Vista, São José do Rio Preto - SP, Brazil","SP","São José do Rio Preto",-20.8088376,-49.3769591
"AP",1350,44,1,2,"Rua Dois de Dezembro - Flamengo, Rio de Janeiro - RJ, Brazil","RJ","Rio de Janeiro",NA,NA
"AP",700,58,2,1,"Alto da Boa Vista, Ribeirão Preto - SP, Brazil","SP","Ribeirão Preto",-21.1928471,-47.8169848
"AP",500,53,2,1,"Parque das Indústrias, Betim - MG, Brazil","MG","Betim",-19.9585836,-44.1780726
"AP",3205,61,1,1,"Rua Bela Cintra, 32 - Consolação, São Paulo - SP, Brazil","SP","São Paulo",-23.5509417,-46.653633
"AP",4000,100,2,3,"Avenida Jurema - Moema, São Paulo - SP, Brazil","SP","São Paulo",-23.6083361,-46.6590741
"AP",1020,78,2,2,"Rua Joaquim Távora, 310 - Icaraí, Niterói - RJ, Brazil","RJ","Niterói",-22.9102438,-43.1014802
"AP",2500,100,3,3,"Rua José Hemetério Andrade, 711 - Buritis, Belo Horizonte - MG, Brazil","MG","Belo Horizonte",NA,NA
"AP",1200,74,2,2,"Rua Marlene Cavalcante - Jardim Guanabara, Macaé - RJ, Brazil","RJ","Macaé",NA,NA
"AP",1400,50,1,1,"Rua Duque de Caxias, 959 - Centro, Porto Alegre - RS, Brazil","RS","Porto Alegre",-30.0340131,-51.2353369
"AP",1800,80,2,2,"Rua José Bonifácio - São Domingos, Niterói - RJ, Brazil","RJ","Niterói",-22.8999253,-43.1292086
"AP",1350,69,3,2,"Parque Bela Vista, Votorantim - SP, Brazil","SP","Votorantim",NA,NA
"AP",900,50,2,1,"Rua Maria Scarpa Formonte, 95 - Limoeiro, Brusque - SC, Brazil","SC","Brusque",-27.0499873,-48.8804587
"AP",1400,103,1,2,"Centro, Piracicaba - SP, Brazil","SP","Piracicaba",-22.7265208,-47.649997
"AP",1500,60,2,1,"Rua Miguel Tostes, 694 - Rio Branco, Porto Alegre - RS, Brazil","RS","Porto Alegre",-30.0315919,-51.205773
"AP",1500,55,2,1,"Praça Radialista Manoel de Nóbrega, 43 - Santa Teresa, Rio de Janeiro - RJ, Brazil","RJ","Rio de Janeiro",NA,NA
"AP",3967,25,1,1,"Consolação, São Paulo - SP, Brazil","SP","São Paulo",-23.557818,-46.6605373
"AP",5100,108,3,2,"Rua Sacopa, 130 - Lagoa, Rio de Janeiro - RJ, Brazil","RJ","Rio de Janeiro",-22.9651887,-43.2008627
"AP",2000,75,3,2,"Rua Japão - Parque das Nações, Santo André - SP, Brazil","SP","Santo André",-23.6354347,-46.5262724
"AP",850,49,2,1,"Avenida da Saudade - Campos Eliseos, Ribeirão Preto - SP, Brazil","SP","Ribeirão Preto",NA,NA
"AP",2450,106,3,3,"Rua Álvaro Tamega, 165 - Centro, Campos dos Goytacazes - RJ, Brazil","RJ","Campos dos Goytacazes",-21.7571466,-41.3365649
"AP",2900,97,3,1,"Rua Girassol - Vila Madalena, São Paulo - SP, Brazil","SP","São Paulo",-23.5535292,-46.6905655
"AP",1000,42,2,1,"Rua Ventura Carneiro, 1 - Sítio do Mandaqui, São Paulo - SP, Brazil","SP","São Paulo",NA,NA
"AP",1430,55,2,1,"Centro, Tramandaí - RS, Brazil","RS","Tramandaí",-29.9853243,-50.1356799
"AP",1680,59,2,1,"dois Gramado Portal, Guarulhos - SP, Brazil","SP","Guarulhos",NA,NA
"AP",2100,68,3,2,"Rua Acre - Vila Sao Pedro, Santo André - SP, Brazil","SP","Santo André",NA,NA
"AP",3800,61,1,2,"Brooklin, São Paulo - SP, Brazil","SP","São Paulo",-23.6268017,-46.6881279
"AP",1700,70,2,1,"Rua Copacabana, 689 - Vila Guilhermina, Praia Grande - SP, Brazil","SP","Praia Grande",NA,NA
"AP",1300,50,1,1,"Avenida Júlio de Mesquita, 536 - Cambuí, Campinas - SP, Brazil","SP","Campinas",-22.9012922,-47.053964
"AP",1100,63,1,2,"Avenida Anchieta, 636 - Cambuí, Campinas - SP, Brazil","SP","Campinas",-22.8984539,-47.0585661
"AP",2500,111,3,1,"Rua Paschoal Bernal Vecina - Jardim Prestes de Barros, Sorocaba - SP, Brazil","SP","Sorocaba",-23.507051,-47.4273695
"AP",5000,100,3,2,"Rua Conselheiro Brotero - Higienópolis, São Paulo - SP, Brazil","SP","São Paulo",-23.5396349,-46.661481
"AP",3200,60,2,2,"Rua Jovina - Vila Mascote, São Paulo - SP, Brazil","SP","São Paulo",NA,NA
"AP",1800,62,2,2,"Centro, Ribeirão Preto - SP, Brazil","SP","Ribeirão Preto",-21.1780948,-47.8093737
"AP",700,45,1,1,"Rua Henrique Dumont - Jardim Paulista, Ribeirão Preto - SP, Brazil","SP","Ribeirão Preto",-21.1823182,-47.7936242
"AP",650,43,1,1,"Avenida Braz Olaia Acosta - Nova Aliança, Ribeirão Preto - SP, Brazil","SP","Ribeirão Preto",-21.2125872,-47.8195344
"AP",4300,73,2,2,"Rua Guararapes, 103 - Brooklin, São Paulo - SP, Brazil","SP","São Paulo",-23.6117278,-46.681477
"AP",2500,66,2,2,"Rua Deputado Antônio Edu Vieira - Pantanal, Florianópolis - SC, Brazil","SC","Florianópolis",-27.6091123,-48.5219202
"AP",1200,79,1,2,"Rua Nossa Senhora Mãe dos Homens, 449 - Vila Progresso, Guarulhos - SP, Brazil","SP","Guarulhos",-23.4607139,-46.5351233
"AP",2700,50,2,1,"Rua José Maria Lisboa, 730 - Jardim Paulista, São Paulo - SP, Brazil","SP","São Paulo",-23.5631339,-46.6635556
"AP",2500,122,3,5,"Jardim Botânico, Ribeirão Preto - SP, Brazil","SP","Ribeirão Preto",-21.2157061,-47.7953542
"AP",3300,79,3,2,"Rua Marquês de Olinda, 61 - Botafogo, Rio de Janeiro - RJ, Brazil","RJ","Rio de Janeiro",-22.9438836333333,-43.1845904555556
"AP",2299,80,3,2,"Rua Orfanato, 529 - Móoca, São Paulo - SP, Brazil","SP","São Paulo",NA,NA
"AP",1400,80,2,2,"Rua Coronel Moreira Cesar, 447 - Icaraí, Niterói - RJ, Brazil","RJ","Niterói",-22.9036329,-43.1140699
"AP",700,46,1,1,"Avenida Baltazar de Oliveira Garcia, 2830 - Costa E Silva, Porto Alegre - RS, Brazil","RS","Porto Alegre",-30.0151324,-51.111947
"AP",850,42,2,1,"Estrada Guilherme Weigert, 1655 - Santa Cândida, Curitiba - PR, Brazil","PR","Curitiba",-25.3603519,-49.2317662
"AP",1200,80,3,2,"Rua Zurick, 1647 - Salgado Filho, Belo Horizonte - MG, Brazil","MG","Belo Horizonte",-19.9418188,-43.9783558
"AP",1700,34,1,1,"Rua Deputado Emílio Carlos - Vila Campesina, Osasco - SP, Brazil","SP","Osasco",NA,NA
"AP",1100,81,2,2,"Rua Euclides da Cunha, 1501 - Bigorrilho, Curitiba - PR, Brazil","PR","Curitiba",-25.4324465,-49.2992177
"AP",750,51,2,1,"Fragata, Pelotas - RS, Brazil","RS","Pelotas",-31.7539521,-52.3730173
"AP",3000,176,4,2,"Chácara Belenzinho, São Paulo - SP, Brazil","SP","São Paulo",NA,NA
"AP",1800,41,1,1,"Avenida Ipiranga, 200 - República, São Paulo - SP, Brazil","SP","São Paulo",-23.5465344,-46.6448641
"AP",2200,45,1,1,"Lourdes, Belo Horizonte - MG, Brazil","MG","Belo Horizonte",-19.93307685,-43.9438165777958
"AP",2999,96,3,1,"Rua Ouvidor Portugal - Vila Monumento, São Paulo - SP, Brazil","SP","São Paulo",-23.5750405,-46.6113997
"AP",3000,75,2,1,"Rua Teodoro Sampaio, 498 - Pinheiros, São Paulo - SP, Brazil","SP","São Paulo",-23.5673358,-46.6938166
"AP",1200,52,1,1,"Estrada Governador Chagas Freitas, 162 - Moneró, Rio de Janeiro - RJ, Brazil","RJ","Rio de Janeiro",-22.7993651,-43.2007004
"AP",1000,60,2,1,"Rua Antônio Ferreira da Silva - Renascer, Cabedelo - PB, Brazil","PB","Cabedelo",NA,NA
"AP",2200,64,2,2,"Praça General Porto Carreiro, 10 - Jaguaré, São Paulo - SP, Brazil","SP","São Paulo",-23.5469369,-46.7487836
"AP",2200,57,2,2,"Butantã, São Paulo - SP, Brazil","SP","São Paulo",-23.5690555,-46.7218833626702
"AP",1150,45,1,1,"Vila Amélia, Ribeirão Preto - SP, Brazil","SP","Ribeirão Preto",NA,NA
"AP",850,47,2,1,"Rua Augusto Lippel, 1900 - Parque Campolim, Sorocaba - SP, Brazil","SP","Sorocaba",-23.5367031,-47.4755402
"AP",1200,42,1,1,"Avenida Maria de Jesus Condeixa - Jardim Palma Travassos, Ribeirão Preto - SP, Brazil","SP","Ribeirão Preto",NA,NA
"AP",2650,112,2,3,"Rua Najla Carone Guedert, 615 - Pagani, Palhoça - SC, Brazil","SC","Palhoça",-27.6430977,-48.6717333
"AP",1000,55,2,1,"Rua A, 1237 - Taquara, Rio de Janeiro - RJ, Brazil","RJ","Rio de Janeiro",-22.9152227,-43.408345
"AP",2150,48,2,1,"Rua Carneiro da Silva - Vila Leopoldina, São Paulo - SP, Brazil","SP","São Paulo",-23.5236435,-46.7350996
"AP",750,39,1,1,"Rua Doutor Carlos de Camargo Salles, 112 - Jardim Lutfalla, São Carlos - SP, Brazil","SP","São Carlos",-22.0069231,-47.8940797
"AP",900,60,2,1,"Rua Carlos Palut, 456 - Taquara, Rio de Janeiro - RJ, Brazil","RJ","Rio de Janeiro",-22.9335421,-43.3690928
"AP",3500,63,2,2,"Rua Alves Guimarães - Pinheiros, São Paulo - SP, Brazil","SP","São Paulo",-23.5501258,-46.6822123
"AP",3100,63,2,2,"Rua Nebraska - Brooklin, São Paulo - SP, Brazil","SP","São Paulo",-23.609714,-46.6823201
"AP",3050,127,3,4,"Jardim Bom Clima, Guarulhos - SP, Brazil","SP","Guarulhos",NA,NA
"AP",950,57,2,1,"Rua Flomape, 1660 - Real Parque, São José - SC, Brazil","SC","São José",-27.5632027,-48.6303184
"AP",1050,65,2,1,"Rua Itapura - Jardim Paulista, Ribeirão Preto - SP, Brazil","SP","Ribeirão Preto",-21.1817536,-47.7944102
"AP",750,46,1,1,"Rua Iguape, 606 - Jardim Paulista, Ribeirão Preto - SP, Brazil","SP","Ribeirão Preto",-21.1804653,-47.7921273
"AP",1470,50,2,1,"Rua Primeiro de Agosto, 253 - Vila das Mercês, São Paulo - SP, Brazil","SP","São Paulo",NA,NA
"AP",5000,157,4,4,"Rua das Guianas - Sion, Belo Horizonte - MG, Brazil","MG","Belo Horizonte",-19.9564932,-43.9377971
"AP",800,54,2,1,"Avenida João dos Santos Abreu, 512 - Vila Espanhola, São Paulo - SP, Brazil","SP","São Paulo",NA,NA
"AP",1200,31,1,1,"Vila Tibério, Ribeirão Preto - SP, Brazil","SP","Ribeirão Preto",-21.1684241,-47.8255028
"AP",1000,55,1,2,"Avenida Santo Antônio - Vila Osasco, Osasco - SP, Brazil","SP","Osasco",-23.5367237,-46.7861206
"AP",900,37,1,1,"Avenida Braz Olaia Acosta - Nova Aliança, Ribeirão Preto - SP, Brazil","SP","Ribeirão Preto",-21.2125872,-47.8195344
"AP",1250,43,2,1,"Residencial Anauá, Hortolândia - SP, Brazil","SP","Hortolândia",-22.8743138,-47.1880567
"AP",2500,85,2,2,"Avenida Marte - Alphaville, Santana de Parnaíba - SP, Brazil","SP","Santana de Parnaíba",NA,NA
"AP",900,74,2,2,"Avenida Doutor Theodureto de Almeida Camargo - Jardim Nossa Senhora Auxiliadora, Campinas - SP, Brazil","SP","Campinas",NA,NA
"AP",1000,66,2,2,"Centro, Ribeirão Preto - SP, Brazil","SP","Ribeirão Preto",-21.1780948,-47.8093737
"AP",2400,100,3,2,"Rua Almirante Cochrane, 26 - Tijuca, Rio de Janeiro - RJ, Brazil","RJ","Rio de Janeiro",-22.9200574,-43.2267514
"AP",1200,54,2,1,"Rua João Ribeiro de Barros - Odim Antao, Sorocaba - SP, Brazil","SP","Sorocaba",-23.4773669,-47.4549708
"AP",2100,98,3,3,"Rua Mário Siqueira, 360 - Botafogo, Campinas - SP, Brazil","SP","Campinas",-22.8966009,-47.0688577
"AP",3900,48,1,1,"Rua Doutor Paschoal Imperatriz - Brooklin, São Paulo - SP, Brazil","SP","São Paulo",NA,NA
"AP",2300,76,3,2,"Rua Elba, 419 - Vila das Mercês, São Paulo - SP, Brazil","SP","São Paulo",-23.618152,-46.6043263
"AP",3500,55,2,1,"Rua Doutor Ivo Define Frasca, 74 - Vila Olímpia, São Paulo - SP, Brazil","SP","São Paulo",-23.5945038,-46.6736989
"AP",5500,120,3,4,"Moema, São Paulo - SP, Brazil","SP","São Paulo",-23.597085,-46.6628884
"AP",4200,97,2,2,"Rua Viradouro, 29 - Itaim Bibi, São Paulo - SP, Brazil","SP","São Paulo",-23.5851633,-46.6799436
"AP",2800,55,1,1,"Barcelona, São Caetano do Sul - SP, Brazil","SP","São Caetano do Sul",-23.6203476,-46.5504286
"AP",850,90,2,1,"Parque Guarani, Juiz de Fora - MG, Brazil","MG","Juiz de Fora",NA,NA
"AP",3000,60,2,1,"Rua Pensilvânia, 57 - Brooklin, São Paulo - SP, Brazil","SP","São Paulo",-23.6140325,-46.6836186
"AP",2500,45,1,1,"República, São Paulo - SP, Brazil","SP","São Paulo",-23.5453345,-46.6422571183597
"AP",750,32,1,1,"Jardim Paulista, Ribeirão Preto - SP, Brazil","SP","Ribeirão Preto",-21.1807797,-47.7942687
"AP",1562,94,2,3,"Rua da Divina Misericórdia - Vila Valqueire, Rio de Janeiro - RJ, Brazil","RJ","Rio de Janeiro",NA,NA
"AP",3550,89,2,3,"Rua João Cachoeira, 230 - Itaim Bibi, São Paulo - SP, Brazil","SP","São Paulo",-23.5934581,-46.6750151
"AP",2200,134,3,2,"Rua Araribóia - São Francisco, Niterói - RJ, Brazil","RJ","Niterói",-22.9203899,-43.0917632
"AP",2900,65,2,2,"Rua Bacaetava, 35 - Brooklin, São Paulo - SP, Brazil","SP","São Paulo",-23.6219977,-46.6952372
"AP",1390,70,2,2,"Rua Gomes de Freitas - Jardim Itú Sabará, Porto Alegre - RS, Brazil","RS","Porto Alegre",-30.0143578,-51.143347
"AP",3400,45,1,1,"Rua Flórida - Cidade Monções, São Paulo - SP, Brazil","SP","São Paulo",NA,NA
"AP",2600,35,1,1,"Rua da Consolação, 1515 - Consolação, São Paulo - SP, Brazil","SP","São Paulo",-23.5511742,-46.655181083527
"AP",2000,52,1,1,"Rua São Paulo, 1091 - Centro, Belo Horizonte - MG, Brazil","MG","Belo Horizonte",-19.9249367,-43.941615
"AP",1200,71,2,1,"Ladeira Alexandre Leonel - Cascatinha, Juiz de Fora - MG, Brazil","MG","Juiz de Fora",-21.7848609,-43.3612381
"AP",3985,58,1,1,"Rua Fernão Dias, 323 - Pinheiros, São Paulo - SP, Brazil","SP","São Paulo",-23.5640025,-46.6954222
"AP",4485,80,3,2,"Rua do Rocio, 52 - Vila Olímpia, São Paulo - SP, Brazil","SP","São Paulo",-23.5940889,-46.686256
"AP",2500,38,1,1,"Rua Dona Antônia de Queirós, 88 - Consolação, São Paulo - SP, Brazil","SP","São Paulo",-23.5524016,-46.6523258
"AP",1450,60,2,1,"Rua Ézio Wagner da Silva - Residencial Parque da Fazenda, Campinas - SP, Brazil","SP","Campinas",NA,NA
"AP",2900,60,1,2,"Rua Luís Correia de Melo, 86 - Granja Julieta, São Paulo - SP, Brazil","SP","São Paulo",NA,NA
"AP",880,55,2,1,"Rua João Alfredo Kraemer, 100 - Roselândia, Novo Hamburgo - RS, Brazil","RS","Novo Hamburgo",NA,NA
"AP",850,43,1,1,"Avenida Alberto Bins, 820 - Floresta, Porto Alegre - RS, Brazil","RS","Porto Alegre",-30.02745005,-51.218242506662
"AP",2200,70,2,1,"Rua Sebastião de Lacerda - Laranjeiras, Rio de Janeiro - RJ, Brazil","RJ","Rio de Janeiro",-22.9367764,-43.1889664
"AP",1700,45,1,2,"Rua Santo Antônio, 1046 - Bela Vista, São Paulo - SP, Brazil","SP","São Paulo",-23.5528236,-46.6467111
"AP",1950,30,2,1,"Rua Leopoldo Miguez, 512 - Cambuci, São Paulo - SP, Brazil","SP","São Paulo",-23.5563917,-46.6227648
"AP",1800,76,2,1,"Rua Francisco Goulart - Trindade, Florianópolis - SC, Brazil","SC","Florianópolis",-27.5955,-48.5221649
"AP",900,52,2,1,"Rua Projetada B - Santa Cruz, Rio de Janeiro - RJ, Brazil","RJ","Rio de Janeiro",-22.9601137,-44.0282544
"AP",2300,63,2,1,"Rua Doutor Bacelar - Vila Clementino, São Paulo - SP, Brazil","SP","São Paulo",-23.5934869,-46.6470592
"AP",1950,72,3,2,"Avenida Interlagos - Jardim Marajoara, São Paulo - SP, Brazil","SP","São Paulo",-23.6641637,-46.6785733
"AP",2500,85,3,2,"Travessa E, 145 - Butantã, São Paulo - SP, Brazil","SP","São Paulo",-23.5606292,-46.7330654
"AP",2500,69,2,2,"Jardim do Lago, Bragança Paulista - SP, Brazil","SP","Bragança Paulista",-23.1324872,-46.5575459
"AP",2299,50,2,1,"Casa Forte, Recife - PE, Brazil","PE","Recife",-8.0337811,-34.9183073
"AP",1000,62,2,2,"Rua Augusto Sacratin, 261 - Vila Omar, Americana - SP, Brazil","SP","Americana",NA,NA
"AP",2582,35,1,1,"Paraíso, São Paulo - SP, Brazil","SP","São Paulo",-21.015911,-48.776105
"AP",3400,44,1,2,"Rua Castilho - Brooklin, São Paulo - SP, Brazil","SP","São Paulo",-23.6133318,-46.6912012
"AP",880,54,2,1,"Rua Estéfano Filipini, 299 - Artur Alvim, São Paulo - SP, Brazil","SP","São Paulo",-23.5520341,-46.4813458
"AP",700,44,2,1,"Residencial Parati, São Carlos - SP, Brazil","SP","São Carlos",-21.9915655,-47.9171296
"AP",1300,90,2,1,"Rua Godofredo Viana, 401 - Taquara, Rio de Janeiro - RJ, Brazil","RJ","Rio de Janeiro",-22.9203032,-43.3689098
"AP",3190,136,4,2,"Rua Oito de Dezembro, 227 - Graça, Salvador - BA, Brazil","BA","Salvador",NA,NA
"AP",1500,40,1,1,"Rua Apiacás, 753 - Perdizes, São Paulo - SP, Brazil","SP","São Paulo",-23.5362868,-46.6779847
"AP",550,55,2,1,"Avenida Monteiro Lobato - VILA VIRGINIA, Ribeirão Preto - SP, Brazil","SP","Ribeirão Preto",NA,NA
"AP",4240,101,2,3,"Rua Marcos Fernandes - Saúde, São Paulo - SP, Brazil","SP","São Paulo",-23.6186652,-46.6183885
"AP",1200,47,2,1,"Vila Sacadura Cabral, Santo André - SP, Brazil","SP","Santo André",-23.6565375,-46.5568523
"AP",1300,48,2,1,"Rua Antonio Ruiz Veiga, 100 - Vila Mogilar, Mogi das Cruzes - SP, Brazil","SP","Mogi das Cruzes",NA,NA
"AP",2000,130,3,4,"Santa Maria, Uberlândia - MG, Brazil","MG","Uberlândia",-18.9939801,-49.4623091
"AP",1900,60,2,2,"Avenida Aníbal Correia - Votupoca, Barueri - SP, Brazil","SP","Barueri",NA,NA
"AP",1100,40,1,2,"Rua Demétrio Ribeiro, 654 - Centro Histórico, Porto Alegre - RS, Brazil","RS","Porto Alegre",-30.0360433,-51.2274075
"AP",1100,50,1,1,"Avenida do Forte, 1668 - Vila Ipiranga, Porto Alegre - RS, Brazil","RS","Porto Alegre",-30.0173438,-51.1523656
"AP",2640,137,3,3,"Rua Benjamin Constant - Centro, Ponta Grossa - PR, Brazil","PR","Ponta Grossa",-25.0898149,-50.1566318
"AP",2641,36,1,1,"Alameda Casa Branca, 343 - Jardim Paulista, São Paulo - SP, Brazil","SP","São Paulo",-23.5642905,-46.6580529
"AP",800,50,2,1,"Rua José Zimermann, 111 - Serraria, São José - SC, Brazil","SC","São José",NA,NA
"AP",750,48,2,1,"Areias, São José - SC, Brazil","SC","São José",-27.5550512,-48.631203
"AP",3100,57,2,1,"Rua Doutor Chibata Miyakoshi - Panamby, São Paulo - SP, Brazil","SP","São Paulo",NA,NA
"AP",3800,43,1,1,"Rua Soberana, 49 - Brooklin, São Paulo - SP, Brazil","SP","São Paulo",NA,NA
"AP",800,66,2,1,"Olinda, Uberaba - MG, Brazil","MG","Uberaba",-19.7490398,-47.9662381
"AP",3350,60,2,1,"Rua Eugênio de Medeiros - Pinheiros, São Paulo - SP, Brazil","SP","São Paulo",-23.5695181,-46.700257
"AP",1925,100,2,1,"Rua Professor Torres Homem - Embaré, Santos - SP, Brazil","SP","Santos",-23.9659591,-46.3128775
"AP",1700,68,2,1,"Mirim, Praia Grande - SP, Brazil","SP","Praia Grande",-24.03098465,-46.4928896727134
"AP",1300,31,1,1,"Avenida Marquês de São Vicente, 207 - Água Branca, São Paulo - SP, Brazil","SP","São Paulo",NA,NA
"AP",700,47,2,1,"Campestre, Piracicaba - SP, Brazil","SP","Piracicaba",-22.7671199,-47.6610397
"AP",1200,43,2,1,"Itaquera, São Paulo - SP, Brazil","SP","São Paulo",-23.5360799,-46.4555099
"AP",1200,38,1,1,"Rua Tanabi, 124 - Perdizes, São Paulo - SP, Brazil","SP","São Paulo",NA,NA
"AP",500,52,2,2,"Centro, Taubaté - SP, Brazil","SP","Taubaté",-22.9281753,-45.4612141
"AP",2000,80,3,2,"Saúde, São Paulo - SP, Brazil","SP","São Paulo",-23.61517795,-46.6433933431463
"AP",2400,76,2,1,"Rua Almirante Alvim - Centro, Florianópolis - SC, Brazil","SC","Florianópolis",-27.5918225,-48.5458709
"AP",2700,50,2,2,"Viaduto Borges Lagoa, 512 - Vila Clementino, São Paulo - SP, Brazil","SP","São Paulo",-23.5964053,-46.6509372
"AP",1500,58,2,1,"Rua Guilherme Klavin - Jardim Marajoara, Nova Odessa - SP, Brazil","SP","Nova Odessa",NA,NA
"AP",2500,56,2,1,"Gopouva, Guarulhos - SP, Brazil","SP","Guarulhos",-23.4661931,-46.5460816
"AP",50000,250,4,4,"Ipanema, Rio de Janeiro - RJ, Brazil","RJ","Rio de Janeiro",-22.9839557,-43.2022163
"AP",800,59,2,2,"Rua Umberto Vetoratto, 196 - Jardim Ipiranga, Campinas - SP, Brazil","SP","Campinas",NA,NA
"AP",2450,65,2,1,"Rua Ministro Gastão Mesquita, 157 - Sumaré, São Paulo - SP, Brazil","SP","São Paulo",-23.5394003,-46.6788573
"AP",1200,55,1,2,"Rua General Osório, 841 - Cambuí, Campinas - SP, Brazil","SP","Campinas",-22.9005474,-47.0506529
"AP",2000,40,1,1,"Avenida Divino Salvador - Moema, São Paulo - SP, Brazil","SP","São Paulo",-23.6067581,-46.65758
"AP",1100,68,1,1,"Rudge Ramos, São Bernardo do Campo - SP, Brazil","SP","São Bernardo do Campo",-23.6590824,-46.5682591
"AP",1000,42,1,1,"Rua Luiz de Camões, 255 - Santo Antônio, Porto Alegre - RS, Brazil","RS","Porto Alegre",-30.0564566,-51.2014488
"AP",2600,63,2,2,"Avenida Macuco - Moema, São Paulo - SP, Brazil","SP","São Paulo",-23.6031662,-46.6672515
"AP",1850,106,3,4,"Jardim Botânico, Ribeirão Preto - SP, Brazil","SP","Ribeirão Preto",-21.2157061,-47.7953542
"AP",2000,45,2,1,"Rua Teodoro Sampaio - Pinheiros, São Paulo - SP, Brazil","SP","São Paulo",-23.5621082,-46.6850697
"AP",650,45,2,2,"Rua Rui Monte, 1070 - Antônio Bezerra, Fortaleza - CE, Brazil","CE","Fortaleza",-3.7391804,-38.5875671
"AP",1295,51,1,1,"Rua Marechal Deodoro, 936 - Centro, Campinas - SP, Brazil","SP","Campinas",-22.9009682,-47.0612776
"AP",3500,85,3,3,"Rua Carlos Weber, 890 - Vila Leopoldina, São Paulo - SP, Brazil","SP","São Paulo",-23.5343914,-46.7244351
"AP",2500,110,3,3,"Rua Coronel Amazonas Marcondes, 1217 - Cabral, Curitiba - PR, Brazil","PR","Curitiba",-25.3996952,-49.2540708
"AP",2950,46,1,2,"Rua Aguiar de Barros - Bela Vista, São Paulo - SP, Brazil","SP","São Paulo",NA,NA
"AP",1050,45,1,1,"Jardim Paulistano, Ribeirão Preto - SP, Brazil","SP","Ribeirão Preto",-20.5242344,-47.3585121
"AP",3200,50,1,1,"Brooklin, São Paulo - SP, Brazil","SP","São Paulo",-23.6268017,-46.6881279
"AP",2500,84,3,2,"Avenida Yara - Vila Yara, Osasco - SP, Brazil","SP","Osasco",NA,NA
"AP",1500,60,1,2,"Boulevard Vinte e Oito de Setembro, 192 - Vila Isabel, Rio de Janeiro - RJ, Brazil","RJ","Rio de Janeiro",-22.9147456,-43.2406532
"AP",4000,126,3,3,"Rua Apinajés, 1752 - Sumaré, São Paulo - SP, Brazil","SP","São Paulo",-23.5475461,-46.6873344
"AP",700,53,2,1,"Avenida Integração, 2525 - Feitoria, São Leopoldo - RS, Brazil","RS","São Leopoldo",-29.7543494,-51.097764
"AP",1100,60,1,2,"Esplanada dos Barreiros, São Vicente - SP, Brazil","SP","São Vicente",-23.9562609,-46.4117297
"AP",2500,45,1,1,"Rua Barão de Jaceguai, 1154 - Campo Belo, São Paulo - SP, Brazil","SP","São Paulo",NA,NA
"AP",2000,59,1,1,"Jardim Califórnia, Ribeirão Preto - SP, Brazil","SP","Ribeirão Preto",-21.2112174,-47.8205146
"AP",2400,70,1,2,"Rua Fonte da Saudade - Humaitá, Rio de Janeiro - RJ, Brazil","RJ","Rio de Janeiro",NA,NA
"AP",700,70,2,1,"Rua Professora Edina Rocha de Freitas - Jardim Macedo, Ribeirão Preto - SP, Brazil","SP","Ribeirão Preto",NA,NA
"AP",1000,57,2,1,"Rua Pérola, 1257 - Scharlau, São Leopoldo - RS, Brazil","RS","São Leopoldo",-29.7173871,-51.164816
"AP",1600,60,2,2,"Rua Sidnei Vasconcelos Aguiar - Glória, Macaé - RJ, Brazil","RJ","Macaé",NA,NA
"AP",2550,56,2,1,"Rua Luís Góis - Vila Clementino, São Paulo - SP, Brazil","SP","São Paulo",NA,NA
"AP",2600,44,1,1,"Rua Santa Justina - Vila Olímpia, São Paulo - SP, Brazil","SP","São Paulo",-23.5961613,-46.6797935
"AP",2200,53,2,1,"Rua Carlos Weber, 950 - Vila Leopoldina, São Paulo - SP, Brazil","SP","São Paulo",-23.5313729,-46.7272849
"AP",1500,65,2,2,"Rua Umberto Passarelli - Vila das Jabuticabeiras, Taubaté - SP, Brazil","SP","Taubaté",NA,NA
"AP",1100,70,2,2,"Rua Professor Samuel Moura - Judith, Londrina - PR, Brazil","PR","Londrina",NA,NA
"AP",700,57,2,1,"Rua Doutor Artur Cirilo Freire - Vila Gabriel, Sorocaba - SP, Brazil","SP","Sorocaba",-23.4847486,-47.4599277
"AP",800,43,1,1,"Jardim Irajá, Ribeirão Preto - SP, Brazil","SP","Ribeirão Preto",-21.2054658,-47.8028458
"AP",2700,70,2,2,"Rua Pascoal Vita - Vila Madalena, São Paulo - SP, Brazil","SP","São Paulo",NA,NA
"AP",2985,80,3,3,"Rua Vicentina Gomes, 99 - Campo Grande, São Paulo - SP, Brazil","SP","São Paulo",-23.6644036,-46.7085712
"AP",1500,52,1,1,"Rua do Ébano, 0 - Caminho Das Árvores, Salvador - BA, Brazil","BA","Salvador",-12.9867014,-38.4621242
"AP",2135,75,2,2,"Rua Maria Lucinda, 97 - Vila Zanardi, Guarulhos - SP, Brazil","SP","Guarulhos",NA,NA
"AP",1950,78,3,2,"Jardim Paraiso Ii, Itu - SP, Brazil","SP","Itu",-23.2673164,-47.2687051884282
"AP",1100,61,2,2,"Rua José do Patrocínio, 382 - Cidade Baixa, Porto Alegre - RS, Brazil","RS","Porto Alegre",-30.0372322,-51.2259946
"AP",2500,130,4,1,"Rua Trinta e Cinco B, 300 - Sessenta, Volta Redonda - RJ, Brazil","RJ","Volta Redonda",NA,NA
"AP",2100,146,3,4,"Rua do Vergueiro - Centro, Piracicaba - SP, Brazil","SP","Piracicaba",-22.7251681,-47.6541334
"AP",2000,120,3,2,"Rua 1910 - Centro, Balneário Camboriú - SC, Brazil","SC","Balneário Camboriú",-26.9923705,-48.6325332
"AP",2300,57,1,1,"Tijuca, Rio de Janeiro - RJ, Brazil","RJ","Rio de Janeiro",-22.9332164,-43.2381453
"AP",2600,84,2,1,"Funcionários, Belo Horizonte - MG, Brazil","MG","Belo Horizonte",-19.9325162,-43.9273182734633
"AP",2300,70,2,2,"Jardim Tejereba , Guarujá - SP, Brazil","SP","Guarujá",NA,NA
"AP",1100,60,2,1,"Rua Santos Dumont, 840 - Ponte do Imaruim, Palhoça - SC, Brazil","SC","Palhoça",-27.6334257,-48.6599529
"AP",4990,70,2,2,"Avenida Engenheiro Luiz Carlos Berrini, 1618 - Brooklin, São Paulo - SP, Brazil","SP","São Paulo",-23.6135281,-46.6957995
"AP",1700,64,3,2,"Rua Vitório Magnavacca, 251 - Buritis, Belo Horizonte - MG, Brazil","MG","Belo Horizonte",-19.9681507,-43.9655589
"AP",1200,46,2,1,"Rua Coimbra, 620 - Centro, Diadema - SP, Brazil","SP","Diadema",-23.6924019,-46.6312417
"AP",1200,37,1,1,"Travessa A, 402 - Partenon, Porto Alegre - RS, Brazil","RS","Porto Alegre",-30.0596909,-51.1862305
"AP",4200,53,1,1,"Rua Sansão Alves dos Santos, 343 - Brooklin, São Paulo - SP, Brazil","SP","São Paulo",NA,NA
"AP",800,34,1,1,"Jardim Paulista, Ribeirão Preto - SP, Brazil","SP","Ribeirão Preto",-21.1807797,-47.7942687
"AP",6000,65,2,2,"Rua Nova York, 245 - Brooklin, São Paulo - SP, Brazil","SP","São Paulo",-23.6167493,-46.6862589
"AP",2380,64,2,3,"Cambuí, Campinas - SP, Brazil","SP","Campinas",-22.892222,-47.049722
"AP",4500,105,3,4,"Cambuí, Campinas - SP, Brazil","SP","Campinas",-22.892222,-47.049722
"AP",2400,65,2,2,"Rua Doutor Djalma Pinheiro Franco, 829 - Vila Mascote, São Paulo - SP, Brazil","SP","São Paulo",NA,NA
"AP",1500,57,2,1,"Rua da Glória - Liberdade, São Paulo - SP, Brazil","SP","São Paulo",-23.5591462,-46.6337858
"AP",3500,110,3,2,"Rua Presidente Backer, 337 - Icaraí, Niterói - RJ, Brazil","RJ","Niterói",-22.9003236,-43.1066787
"AP",680,40,1,1,"Parque Industrial Lagoinha, Ribeirão Preto - SP, Brazil","SP","Ribeirão Preto",-21.1979937,-47.7615281
"AP",1400,50,3,2,"Vila Nossa Senhora das Gracas, Taubaté - SP, Brazil","SP","Taubaté",-22.9384539,-45.4517475
"AP",3731,16,1,1,"Vila Mariana, São Paulo - SP, Brazil","SP","São Paulo",-23.5837,-46.6327408242069
"AP",4800,120,2,3,"Jardim do Mar, São Bernardo do Campo - SP, Brazil","SP","São Bernardo do Campo",NA,NA
"AP",650,50,2,1,"Rua Arnaldo Victaliano, 1696 - Jardim Palma Travassos, Ribeirão Preto - SP, Brazil","SP","Ribeirão Preto",NA,NA
"AP",900,110,3,2,"Rua Niterói, 85 - Centro, Londrina - PR, Brazil","PR","Londrina",-23.30684385,-51.1593226764189
"AP",1500,43,1,1,"Avenida Oswaldo Cruz, 90 - Flamengo, Rio de Janeiro - RJ, Brazil","RJ","Rio de Janeiro",-22.9402335700435,-43.1757366457971
"AP",4000,83,2,1,"Rua Jesuíno Arruda - Itaim Bibi, São Paulo - SP, Brazil","SP","São Paulo",-23.5819849,-46.6743898
"AP",2000,95,3,3,"Rua Azarias de Melo - Taquaral, Campinas - SP, Brazil","SP","Campinas",-22.8844004,-47.0521538
"AP",1500,70,3,2,"Jardim Faculdade, Sorocaba - SP, Brazil","SP","Sorocaba",-23.5135771,-47.4629428
"AP",2491,35,1,1,"Vila Olímpia, São Paulo - SP, Brazil","SP","São Paulo",-23.5940278,-46.6842193
"AP",1200,47,2,1,"Avenida Amador Aguiar - Jaragua, São Paulo - SP, Brazil","SP","São Paulo",-23.4448928,-46.7270746
"AP",2700,88,3,2,"Rua Pompeu Loureiro - Copacabana, Rio de Janeiro - RJ, Brazil","RJ","Rio de Janeiro",-22.9722881,-43.191854
"AP",8000,120,3,2,"Centro, Balneário Camboriú - SC, Brazil","SC","Balneário Camboriú",-26.9926216,-48.6323541
"AP",650,75,2,3,"Rua Ipiranga - Centro, Piracicaba - SP, Brazil","SP","Piracicaba",-22.7319737,-47.6462663
"AP",1300,55,1,2,"Rua Coronel Moreira Cesar - Icaraí, Niterói - RJ, Brazil","RJ","Niterói",-22.9106656,-43.1067498
"AP",800,32,1,1,"Avenida Marechal Floriano Peixoto - Pompeia, Santos - SP, Brazil","SP","Santos",-23.9668209,-46.3390873
"AP",6150,62,1,2,"Rua Leopoldo Couto Magalhães Júnior - Itaim Bibi, São Paulo - SP, Brazil","SP","São Paulo",-23.5892586,-46.6840196
"AP",3500,49,1,1,"Gonzaga, Santos - SP, Brazil","SP","Santos",-23.9638508,-46.3330447
"AP",3100,70,2,1,"Avenida Onze de Junho - Vila Clementino, São Paulo - SP, Brazil","SP","São Paulo",NA,NA
"AP",3300,69,2,2,"Avenida Ômega, 310 - Melville Empresarial Ii, Barueri - SP, Brazil","SP","Barueri",-23.4844044,-46.8489553
"AP",1000,51,2,1,"Residencial Greenville, Ribeirão Preto - SP, Brazil","SP","Ribeirão Preto",-21.21794215,-47.7627918476978
"AP",800,60,2,1,"Avenida Monteiro Lobato - VILA VIRGINIA, Ribeirão Preto - SP, Brazil","SP","Ribeirão Preto",NA,NA
"AP",2000,70,2,1,"Rua Padre Antônio Tomás, 201 - Perdizes, São Paulo - SP, Brazil","SP","São Paulo",NA,NA
"AP",1400,45,2,1,"Rua Abagiba, 674 - Vila das Mercês, São Paulo - SP, Brazil","SP","São Paulo",-23.6200813,-46.6070672
"AP",2400,68,2,2,"Rua Hermantino Coelho, 891 - Mansões Santo Antônio, Campinas - SP, Brazil","SP","Campinas",NA,NA
"AP",1800,55,2,1,"Vila Industrial, Campinas - SP, Brazil","SP","Campinas",-22.6830835,-47.6689696
"AP",950,37,1,1,"Avenida Coronel Fernando Ferreira Leite - Residencial Flórida, Ribeirão Preto - SP, Brazil","SP","Ribeirão Preto",NA,NA
"AP",2690,75,2,2,"Rua Engenheiro Arthur Bettes, 152 - Água Verde, Curitiba - PR, Brazil","PR","Curitiba",NA,NA
"AP",1500,47,1,1,"Avenida Protásio Alves, 1398 - Rio Branco, Porto Alegre - RS, Brazil","RS","Porto Alegre",-30.0402045,-51.1959544
"AP",1490,60,2,1,"Alameda Doutor Muricy, 385 - Centro, Curitiba - PR, Brazil","PR","Curitiba",-25.4340627,-49.2716189019849
"AP",1550,45,1,1,"Rua Adolfo Gordo - Campos Eliseos, São Paulo - SP, Brazil","SP","São Paulo",NA,NA
"AP",1000,32,1,1,"Rua 231, 1 - Setor Leste Vila Nova, Goiânia - GO, Brazil","GO","Goiânia",-16.6689995,-49.2405811
"AP",1350,83,2,1,"Rua Joracy Camargo - Vila Alvinopolis, São Bernardo do Campo - SP, Brazil","SP","São Bernardo do Campo",NA,NA
"AP",1100,80,2,2,"Avenida Caramuru - Jardim Republica, Ribeirão Preto - SP, Brazil","SP","Ribeirão Preto",NA,NA
"AP",2900,72,3,2,"Saúde, São Paulo - SP, Brazil","SP","São Paulo",-23.61517795,-46.6433933431463
"AP",2160,94,3,2,"Jardim Aurélia, Campinas - SP, Brazil","SP","Campinas",-23.2190113,-46.8549621
"AP",3700,65,2,2,"Rua Cayowaá - Sumaré, São Paulo - SP, Brazil","SP","São Paulo",-23.5382073,-46.6834227
"AP",1400,122,3,1,"Jardim Santa Maria, São Paulo - SP, Brazil","SP","São Paulo",-23.5831825,-46.811105
"AP",2000,111,3,1,"Rua José Tosi - Jardim do Paco, Sorocaba - SP, Brazil","SP","Sorocaba",-23.4678747,-47.4150886
"AP",3800,55,2,1,"Rua Doutor Eduardo Amaro, 99 - Paraíso, São Paulo - SP, Brazil","SP","São Paulo",-23.5749865,-46.6396989
"AP",4000,70,1,1,"Rua Goitacas, 71 - Higienópolis, São Paulo - SP, Brazil","SP","São Paulo",NA,NA
"AP",3000,73,2,2,"Largo dos Leões - Humaitá, Rio de Janeiro - RJ, Brazil","RJ","Rio de Janeiro",-22.95334505,-43.196811782061
"AP",2700,90,2,1,"Rua Machado de Assis - Vila Mariana, São Paulo - SP, Brazil","SP","São Paulo",-23.5824093,-46.637478
"AP",950,50,1,1,"Rua do Bispo, 94 - Tijuca, Rio de Janeiro - RJ, Brazil","RJ","Rio de Janeiro",-22.9217899,-43.2147522
"AP",5200,66,1,2,"Rua Kansas - Brooklin, São Paulo - SP, Brazil","SP","São Paulo",-23.609688,-46.677315
"AP",612,53,2,1,"Jardim Paulistano, São Carlos - SP, Brazil","SP","São Carlos",-21.9948793,-47.8979829
"AP",2300,80,2,1,"Boa Viagem, Recife - PE, Brazil","PE","Recife",-8.1235027,-34.9033955
"AP",1000,43,2,1,"Jardim Jose Sampaio Junior, Ribeirão Preto - SP, Brazil","SP","Ribeirão Preto",NA,NA
"AP",3000,91,3,2,"Rua Chui, 71 - Paraíso, São Paulo - SP, Brazil","SP","São Paulo",NA,NA
"AP",2700,120,3,3,"Avenida Coronel Silva Teles, 308 - Cambuí, Campinas - SP, Brazil","SP","Campinas",-22.8949216,-47.0548121
"AP",900,32,1,1,"Rua Antônio Fugi, 164 - Vila Esperanca, Maringá - PR, Brazil","PR","Maringá",NA,NA
"AP",1500,58,2,2,"Avenida Niterói, 360 - Medianeira, Porto Alegre - RS, Brazil","RS","Porto Alegre",-30.0688046,-51.2051329
"AP",3300,90,3,2,"Condomínio Royal Park, São José dos Campos - SP, Brazil","SP","São José dos Campos",NA,NA
"AP",2900,90,3,1,"Avenida Epitácio Pessoa, 2142 - Ipanema, Rio de Janeiro - RJ, Brazil","RJ","Rio de Janeiro",-22.9804646,-43.2141944
"AP",800,32,1,1,"Ribeirânia, Ribeirão Preto - SP, Brazil","SP","Ribeirão Preto",-21.2042093,-47.7815051
"AP",834,46,2,1,"Recreio São Judas Tadeu, São Carlos - SP, Brazil","SP","São Carlos",NA,NA
"AP",1100,75,3,2,"Rua Luiza Carvalho Torres, 40 - Santo Antônio, Belo Horizonte - MG, Brazil","MG","Belo Horizonte",-19.9500535,-43.9443302
"AP",2500,50,1,2,"Rua Bela Cintra, 1450 - Consolação, São Paulo - SP, Brazil","SP","São Paulo",-23.5526509,-46.6557672
"AP",1720,36,1,1,"Vila Augusta, Guarulhos - SP, Brazil","SP","Guarulhos",-23.47883325,-46.5410710700685
"AP",2400,42,1,1,"Rua Paim, 363 - Consolação, São Paulo - SP, Brazil","SP","São Paulo",-23.55350575,-46.6510256011725
"AP",2700,56,2,1,"Rua Luís Góis - Vila Clementino, São Paulo - SP, Brazil","SP","São Paulo",NA,NA
"AP",1909,41,1,1,"Rua do Ébano, 41 - Caminho Das Árvores, Salvador - BA, Brazil","BA","Salvador",-12.9867014,-38.4621242
"AP",3000,55,2,1,"Rua Jorge Tibiriçá - Vila Mariana, São Paulo - SP, Brazil","SP","São Paulo",-23.5981163,-46.6348664
"AP",1800,86,2,2,"Avenida Cristóvão Colombo, 2674 - Floresta, Porto Alegre - RS, Brazil","RS","Porto Alegre",-30.017878,-51.1983122
"AP",1000,65,2,1,"Rua Conselheiro Agostinho - Todos os Santos, Rio de Janeiro - RJ, Brazil","RJ","Rio de Janeiro",-22.8909027,-43.285486
"AP",800,40,1,1,"Americano, Lajeado - RS, Brazil","RS","Lajeado",-29.4554946,-51.9652723
"AP",1850,75,2,2,"Rua Lauro Linhares - Trindade, Florianópolis - SC, Brazil","SC","Florianópolis",-27.5977365,-48.5203023
"AP",4185,74,2,3,"Alameda dos Jurupis, 800 - Moema, São Paulo - SP, Brazil","SP","São Paulo",-23.6015358,-46.6571615
"AP",1500,88,2,2,"Avenida Almirante Ary Parreiras, 188 - Icaraí, Niterói - RJ, Brazil","RJ","Niterói",-22.9068373,-43.0991698
"AP",2000,35,1,1,"Rua Tupi - Higienópolis, São Paulo - SP, Brazil","SP","São Paulo",-23.5399216,-46.6635593
"AP",1000,36,1,1,"Residencial Flórida, Ribeirão Preto - SP, Brazil","SP","Ribeirão Preto",NA,NA
"AP",3690,76,2,2,"Rua Major Quedinho, 224 - Bela Vista, São Paulo - SP, Brazil","SP","São Paulo",-23.5546482,-46.6430661
"AP",1600,40,1,1,"Vila Buarque, São Paulo - SP, Brazil","SP","São Paulo",-23.5445621,-46.647552
"AP",1200,36,2,1,"Rua Monsenhor Joaquim de Campos, 53 - Vila Santa Clara, São Paulo - SP, Brazil","SP","São Paulo",NA,NA
"AP",3200,95,3,2,"Rua Botucatu, 311 - Vila Clementino, São Paulo - SP, Brazil","SP","São Paulo",-23.5920106,-46.6420483
"AP",4310,28,1,1,"Vila Olímpia, São Paulo - SP, Brazil","SP","São Paulo",-23.5940278,-46.6842193
"AP",1380,44,2,1,"Avenida Wallace Simonsen, 1450 - Nova Petrópolis, São Bernardo do Campo - SP, Brazil","SP","São Bernardo do Campo",-23.7096662,-46.5325539
"AP",1190,44,1,1,"Avenida Engenheiro Armando de Arruda Pereira, 3535 - Jabaquara, São Paulo - SP, Brazil","SP","São Paulo",-23.6355438,-46.6411676
"AP",1200,68,3,2,"Avenida Washington Luís, 217 - Ponte Preta, Campinas - SP, Brazil","SP","Campinas",NA,NA
"AP",1600,32,1,1,"Itoupava Seca, Blumenau - SC, Brazil","SC","Blumenau",-26.8951377,-49.0817181
"AP",1050,62,2,2,"Rua Capistrano de Abreu - Jardim Proença, Campinas - SP, Brazil","SP","Campinas",NA,NA
"AP",800,52,2,1,"Rua Nelson Barbosa da Silva - Dic VI Conjunto Hab. Santo Dias Silva, Campinas - SP, Brazil","SP","Campinas",NA,NA
"AP",1700,90,3,2,"Rua Fagundes Varela, 258 - Ingá, Niterói - RJ, Brazil","RJ","Niterói",-22.9002282,-43.1173427
"AP",900,80,2,1,"Rua Doutor Hermogênio Silva - Retiro, Petrópolis - RJ, Brazil","RJ","Petrópolis",-22.4742255,-43.1655508
"AP",2000,94,2,1,"Rua Antônio Santos Branco - Enseada, Guarujá - SP, Brazil","SP","Guarujá",-23.9819968,-46.2393672
"AP",2150,61,2,2,"Rua Raul Pompéia, 401 - Pompeia, São Paulo - SP, Brazil","SP","São Paulo",-23.5308682,-46.6882303
"AP",6600,118,3,2,"Rua Vieira de Morais - Campo Belo, São Paulo - SP, Brazil","SP","São Paulo",-23.6186505,-46.6761705
"AP",1700,50,2,1,"Rua Artur de Oliveira - Parque Peruche, São Paulo - SP, Brazil","SP","São Paulo",NA,NA
"AP",1700,85,3,1,"Parque Morumbi, Votorantim - SP, Brazil","SP","Votorantim",-23.5366117,-47.4559328
"AP",3184,72,3,2,"Brás, São Paulo - SP, Brazil","SP","São Paulo",-23.5453263,-46.6164435
"AP",4000,55,2,1,"Rua Plínio de Morais, 406 - Sumaré, São Paulo - SP, Brazil","SP","São Paulo",-23.5424,-46.6816394
"AP",1400,100,2,2,"Rua João Batista de Azevedo Marques, 11 - Vila Jordanopolis, São Bernardo do Campo - SP, Brazil","SP","São Bernardo do Campo",-23.684666,-46.5673742
"AP",1700,50,1,1,"Rua Doutor Albuquerque Lins, 80 - Barra Funda, São Paulo - SP, Brazil","SP","São Paulo",NA,NA
"AP",1100,45,2,1,"Rua Coronel Massot, 1229 - Cristal, Porto Alegre - RS, Brazil","RS","Porto Alegre",-30.1000257,-51.2436587
"AP",1900,60,2,2,"Avenida Onze de Junho - Vila Clementino, São Paulo - SP, Brazil","SP","São Paulo",NA,NA
"AP",2700,50,1,1,"Consolação, São Paulo - SP, Brazil","SP","São Paulo",-23.557818,-46.6605373
"AP",2200,112,3,2,"Rua Barão de Itapagipe, 250 - Tijuca, Rio de Janeiro - RJ, Brazil","RJ","Rio de Janeiro",-22.9256485,-43.2223002
"AP",3100,60,1,2,"Avenida Luiz Manoel Gonzaga, 470 - Petrópolis, Porto Alegre - RS, Brazil","RS","Porto Alegre",-30.0374573,-51.1786747
"AP",3200,106,3,3,"Avenida Giuseppe Cilento - Jardim Botânico, Ribeirão Preto - SP, Brazil","SP","Ribeirão Preto",-21.2194333,-47.7991168
"AP",1450,70,2,2,"Rua Baronesa do Gravataí, 179 - Cidade Baixa, Porto Alegre - RS, Brazil","RS","Porto Alegre",-30.041874,-51.226169
"AP",2300,62,2,1,"Rua do Humaitá, 261 - Lagoa, Rio de Janeiro - RJ, Brazil","RJ","Rio de Janeiro",NA,NA
"AP",800,53,2,2,"Rua Coronel Adauto Gomes Barbosa - Poço, Maceió - AL, Brazil","AL","Maceió",-9.6563564,-35.7146611
"AP",700,38,1,1,"Avenida da Saudade - Campos Eliseos, Ribeirão Preto - SP, Brazil","SP","Ribeirão Preto",NA,NA
"AP",2420,63,2,2,"Rua Dona Josefina Sarmento, 367 - Cambuí, Campinas - SP, Brazil","SP","Campinas",-22.8960432,-47.0503356
"AP",1575,70,2,1,"Rua Santa Virgínia, 408 - Tatuapé, São Paulo - SP, Brazil","SP","São Paulo",-23.532722,-46.5701141
"AP",4200,42,1,1,"Rua Flórida, 103 - Cidade Monções, São Paulo - SP, Brazil","SP","São Paulo",NA,NA
"AP",NA,50,1,1,"Avenida Trindade, 216 - Bethaville I, Barueri - SP, Brazil","SP","Barueri",NA,NA
"AP",NA,90,2,3,"Rua Alcides Codeceira, 150 - Iputinga, Recife - PE, Brazil","PE","Recife",-8.0350778,-34.9425973
"AP",NA,45,1,1,"Rua Dom Pedro II - Centro, Pelotas - RS, Brazil","RS","Pelotas",-31.7712937,-52.349862
"AP",NA,70,2,1,"Rua General João Telles - Bom Fim, Porto Alegre - RS, Brazil","RS","Porto Alegre",-30.0322625,-51.2124507
"AP",NA,44,1,1,"Gonzaga, Santos - SP, Brazil","SP","Santos",-23.9638508,-46.3330447
"AP",NA,85,3,2,"Jardim Botânico, Ribeirão Preto - SP, Brazil","SP","Ribeirão Preto",-21.2157061,-47.7953542
"AP",NA,60,1,1,"Rua Comendador Miguel Calfat - Vila Olímpia, São Paulo - SP, Brazil","SP","São Paulo",-23.5928817,-46.6751997
"AP",NA,54,2,1,"Demarchi, São Bernardo do Campo - SP, Brazil","SP","São Bernardo do Campo",-23.7389347,-46.5569811
"AP",NA,86,3,3,"Avenida Presidente Humberto de Alencar Castelo Branco, 1449 - Vila Augusta, Guarulhos - SP, Brazil","SP","Guarulhos",-23.48319,-46.5404569
"AP",NA,80,2,2,"Rua Siqueira Campos - Copacabana, Rio de Janeiro - RJ, Brazil","RJ","Rio de Janeiro",-22.9676191,-43.1858179
"AP",NA,130,2,2,"Rua Miranhas, 152 - Jardim Vila Galvão, Guarulhos - SP, Brazil","SP","Guarulhos",NA,NA
"AP",NA,50,2,2,"Centro, Uberlândia - MG, Brazil","MG","Uberlândia",-18.9164008,-48.2748108
"AP",NA,63,2,1,"Avenida do Café - Vila Amélia, Ribeirão Preto - SP, Brazil","SP","Ribeirão Preto",NA,NA
"AP",NA,84,3,2,"Avenida Doze de Outubro - Vila Santa Teresa, Santo André - SP, Brazil","SP","Santo André",-23.6682486,-46.5302669
"AP",2975,37,1,1,"Avenida Senador Queirós, 101 - Centro, São Paulo - SP, Brazil","SP","São Paulo",NA,NA
"AP",3200,69,2,1,"Rua Galeno de Almeida - Pinheiros, São Paulo - SP, Brazil","SP","São Paulo",-23.5553024,-46.681966
"AP",1750,86,3,2,"Rua Anízio Perissinotto - Jardim Ypê, Paulínia - SP, Brazil","SP","Paulínia",NA,NA
"AP",2750,70,3,2,"Rua Ponta Porã - Lapa, São Paulo - SP, Brazil","SP","São Paulo",-23.5281773,-46.7059493
"AP",1800,45,1,1,"Rua Vilela, 1039 - Tatuapé, São Paulo - SP, Brazil","SP","São Paulo",-23.5415734,-46.5656739
"AP",1320,63,2,1,"Rua Príncipe da Beira, 336 - Vila Alpina, São Paulo - SP, Brazil","SP","São Paulo",-23.5964176,-46.5549275
"AP",2100,32,1,1,"Avenida Thomas Edison, 288 - Barra Funda, São Paulo - SP, Brazil","SP","São Paulo",-23.5247539,-46.6645875
"AP",1700,44,1,1,"Bosque das Juritis, Ribeirão Preto - SP, Brazil","SP","Ribeirão Preto",NA,NA
"AP",6000,110,2,3,"Avenida Cotovia, 274 - Moema, São Paulo - SP, Brazil","SP","São Paulo",-23.6040831,-46.674988
"AP",3300,50,1,1,"Avenida Ômega, 174 - Melville Empresarial Ii, Barueri - SP, Brazil","SP","Barueri",-23.4844044,-46.8489553
"AP",1690,50,1,1,"Rua das Uvaias - Saúde, São Paulo - SP, Brazil","SP","São Paulo",-23.6207952,-46.6408016
"AP",1500,43,1,1,"Rua Adolfo Gordo, 100 - Campos Eliseos, São Paulo - SP, Brazil","SP","São Paulo",NA,NA
"AP",4400,71,2,3,"Alameda dos Jurupis, 896 - Moema, São Paulo - SP, Brazil","SP","São Paulo",-23.6015358,-46.6571615
"AP",900,93,1,1,"Rua Cuba - Jardim Consolação, Franca - SP, Brazil","SP","Franca",-20.5491402,-47.4073825
"AP",2900,98,2,3,"Serra, Belo Horizonte - MG, Brazil","MG","Belo Horizonte",-19.9368053,-43.9214029
"AP",1300,48,2,1,"Rua Domenico Melli, 434 - Artur Alvim, São Paulo - SP, Brazil","SP","São Paulo",-23.5527246,-46.483165
"AP",1600,56,2,1,"Vila Guilherme, São Paulo - SP, Brazil","SP","São Paulo",-23.5170972,-46.6079618
"AP",2200,51,1,1,"Rua Professor João Medeiros - Boa Viagem, Recife - PE, Brazil","PE","Recife",NA,NA
"AP",2050,28,1,1,"Rua Bueno de Andrade, 662 - Aclimação, São Paulo - SP, Brazil","SP","São Paulo",-23.5634338,-46.6315739
"AP",5200,55,1,1,"Alameda Itu, 1400 - Jardim Paulista, São Paulo - SP, Brazil","SP","São Paulo",-23.5591281,-46.6648493
"AP",1200,82,3,2,"Rua Desembargador Ítalo Galli, 111 - Loteamento Country Ville, Campinas - SP, Brazil","SP","Campinas",NA,NA
"AP",3680,29,1,1,"Consolação, São Paulo - SP, Brazil","SP","São Paulo",-23.557818,-46.6605373
"AP",1000,35,1,1,"Rua Santa Clara - Copacabana, Rio de Janeiro - RJ, Brazil","RJ","Rio de Janeiro",-22.964938,-43.1930266
"AP",700,42,2,1,"Rua Brenno Venâncio Martins Sobrinho - Jardim Helena, Ribeirão Preto - SP, Brazil","SP","Ribeirão Preto",NA,NA
"AP",4500,67,2,2,"Avenida Portugal - Brooklin, São Paulo - SP, Brazil","SP","São Paulo",-23.6152858,-46.6820481
"AP",8500,129,3,4,"Rua Helena, 151 - Vila Olímpia, São Paulo - SP, Brazil","SP","São Paulo",-23.5931509,-46.6860701
